$GPVTG,263.57,T,,M,0.01,N,0.02,K,D*3E
$GPGGA,201321.000,3520.7854,N,11748.5184,W,2,10,0.89,626.7,M,-29.4,M,0000,0000*50
$GPGSA,A,3,03,20,09,10,16,23,07,19,30,27,,,1.58,0.89,1.31*0A
$GPRMC,201321.000,A,3520.7854,N,11748.5184,W,0.01,221.35,180415,,,D*7C
$GPVTG,221.35,T,,M,0.01,N,0.02,K,D*3C
$GPVTG,263.57,T,,M,0.01,N,0.02,K,D*3E
$GPGSA,A,3,03,20,09,10,16,23,07,19,30,27,,,1.58,0.89,1.31*0A
$GPRMC,201321.000,A,3520.7854,N,11748.5184,W,0.01,221.35,180415,,,D*7C
$GPVTG,221.35,T,,M,0.01,N,0.02,K,D*3C
$GPVTG,263.57,T,,M,0.01,N,0.02,K,D*3E
$GPGGA,201322.000,3520.7854,N,11748.5184,W,2,10,0.89,626.7,M,-29.4,M,0000,0000*53
$GPGSA,A,3,03,20,09,10,16,23,07,19,30,27,,,1.58,0.89,1.31*0A
$GPGSV,3,1,12,09,82,005,47,23,60,116,38,07,55,303,47,48,45,205,37*7D
$GPGSV,3,2,12,10,39,282,47,16,32,043,48,30,29,275,45,27,27,085,37*76
$GPGSV,3,3,12,19,22,119,33,03,14,179,32,20,13,314,38,28,08,213,35*7A
$GPRMC,201322.000,A,3520.7854,N,11748.5184,W,0.01,257.51,180415,,,D*7C
$GPVTG,257.51,T,,M,0.01,N,0.02,K,D*3F
$GPGSA,A,3,03,20,09,10,16,23,07,19,30,27,,,1.58,0.89,1.31*0A
$GPGSA,A,3,03,20,09,10,16,23,07,19,30,27,,,1.58,0.89,1.31*0A
$GPRMC,201323.000,A,3520.7854,N,11748.5184,W,0.01,169.59,180415,,,D*7B
$GPVTG,169.59,T,,M,0.01,N,0.02,K,D*39
$GPRMC,201322.000,A,3520.7854,N,11748.5184,W,0.01,257.51,180415,,,D*7C
$GPGSA,A,3,03,20,09,10,16,23,07,19,30,27,,,1.58,0.89,1.31*0A
$GPGSV,3,1,12,09,82,005,47,23,60,116,38,07,55,303,47,48,45,205,37*7D
$GPGSV,3,2,12,10,39,282,47,16,32,043,48,30,29,275,45,27,27,085,37*76
$GPGSV,3,3,12,19,22,119,33,03,14,179,32,20,13,314,38,28,08,213,35*7A
$GPGGA,201323.000,3520.7854,N,11748.5184,W,2,10,0.89,626.7,M,-29.4,M,0000,0000*52
$GPGGA,201324.000,3520.7854,N,11748.5184,W,2,10,0.89,626.7,M,-29.4,M,0000,0000*55
$GPGSA,A,3,03,20,09,10,16,23,07,19,30,27,,,1.58,0.89,1.30*0B
$GPRMC,201324.000,A,3520.7854,N,11748.5184,W,0.01,82.67,180415,,,D*45
$GPVTG,82.67,T,,M,0.01,N,0.01,K,D*03
$GPGSA,A,3,03,20,09,10,16,23,07,19,30,27,,,1.58,0.89,1.31*0A
$GPGSA,A,3,03,20,09,10,16,23,07,19,30,27,,,1.58,0.89,1.31*0A
$GPGSV,3,1,12,09,82,005,47,23,60,116,38,07,55,303,47,48,45,205,37*7D
$GPGSV,3,2,12,10,39,282,47,16,32,043,48,30,29,275,45,27,27,085,37*76
$GPGGA,201325.000,3520.7854,N,11748.5184,W,2,10,0.89,626.7,M,-29.4,M,0000,0000*54
$GPGSA,A,3,03,20,09,10,16,23,07,19,30,27,,,1.58,0.89,1.31*0A
$GPRMC,201325.000,A,3520.7854,N,11748.5184,W,0.01,37.19,180415,,,D*43
$GPVTG,37.19,T,,M,0.01,N,0.03,K,D*06
$GPGSV,3,3,12,19,22,119,33,03,14,179,32,20,13,314,38,28,08,213,35*7A
$GPGGA,201323.000,3520.7854,N,11748.5184,W,2,10,0.89,626.7,M,-29.4,M,0000,0000*52
$GPGGA,201324.000,3520.7854,N,11748.5184,W,2,10,0.89,626.7,M,-29.4,M,0000,0000*55
$GPGSA,A,3,03,20,09,10,16,23,07,19,30,27,,,1.58,0.89,1.30*0B
$GPRMC,201324.000,A,3520.7854,N,11748.5184,W,0.01,82.67,180415,,,D*45
$GPVTG,82.67,T,,M,0.01,N,0.01,K,D*03
$GPGSA,A,3,03,20,09,10,16,23,07,19,30,27,,,1.58,0.89,1.31*0A
$GPRMC,201323.000,A,3520.7854,N,11748.5184,W,0.01,169.59,180415,,,D*7B
$GPVTG,169.59,T,,M,0.01,N,0.02,K,D*39
$GPRMC,201322.000,A,3520.7854,N,11748.5184,W,0.01,257.51,180415,,,D*7C
$GPVTG,257.51,T,,M,0.01,N,0.02,K,D*3F
$GPGSA,A,3,03,20,09,10,16,23,07,19,30,27,,,1.58,0.89,1.31*0A
$GPRMC,201321.000,A,3520.7854,N,11748.5184,W,0.01,221.35,180415,,,D*7C
$GPVTG,221.35,T,,M,0.01,N,0.02,K,D*3C
$GPGGA,201326.000,3520.7854,N,11748.5184,W,2,10,0.89,626.7,M,-29.4,M,0000,0000*57
$GPGSA,A,3,03,20,09,10,16,23,07,19,30,27,,,1.58,0.89,1.31*0A
$GPRMC,201326.000,A,3520.7854,N,11748.5184,W,0.01,28.82,180415,,,D*4C
$GPVTG,28.82,T,,M,0.01,N,0.02,K,D*0B
$GPVTG,263.57,T,,M,0.01,N,0.02,K,D*3E
$GPGSA,A,3,03,20,09,10,16,23,07,19,30,27,,,1.58,0.89,1.31*0A
$GPGSV,3,1,12,09,82,005,47,23,60,116,38,07,55,303,47,48,45,205,37*7D
$GPGSV,3,2,12,10,39,282,47,16,32,043,48,30,29,275,45,27,27,085,37*76
$GPGGA,201325.000,3520.7854,N,11748.5184,W,2,10,0.89,626.7,M,-29.4,M,0000,0000*54
$GPGSA,A,3,03,20,09,10,16,23,07,19,30,27,,,1.58,0.89,1.31*0A
$GPRMC,201325.000,A,3520.7854,N,11748.5184,W,0.01,37.19,180415,,,D*43
$GPVTG,37.19,T,,M,0.01,N,0.03,K,D*06
$GPGSV,3,3,12,19,22,119,33,03,14,179,32,20,13,314,38,28,08,213,35*7A
$GPGGA,201323.000,3520.7854,N,11748.5184,W,2,10,0.89,626.7,M,-29.4,M,0000,0000*52
$GPGGA,201324.000,3520.7854,N,11748.5184,W,2,10,0.89,626.7,M,-29.4,M,0000,0000*55
$GPGGA,201327.000,3520.7854,N,11748.5184,W,2,10,0.89,626.7,M,-29.4,M,0000,0000*56
$GPGSA,A,3,03,20,09,10,16,23,07,19,30,27,,,1.58,0.89,1.31*0A
$GPGSV,3,1,12,09,82,005,46,23,60,116,38,07,55,303,47,48,45,205,36*7D
$GPGSV,3,2,12,10,39,282,46,16,32,043,47,30,29,275,45,27,27,085,36*79
$GPGSV,3,3,12,19,22,119,32,03,14,179,26,20,13,314,40,28,08,213,33*77
$GPRMC,201327.000,A,3520.7854,N,11748.5184,W,0.02,34.32,180415,,,D*48
$GPVTG,34.32,T,,M,0.02,N,0.03,K,D*0F
$GPGSA,A,3,03,20,09,10,16,23,07,19,30,27,,,1.58,0.89,1.30*0B
$GPVTG,82.67,T,,M,0.01,N,0.01,K,D*03
$GPGSA,A,3,03,20,09,10,16,23,07,19,30,27,,,1.58,0.89,1.31*0A
$GPRMC,201323.000,A,3520.7854,N,11748.5184,W,0.01,169.59,180415,,,D*7B
$GPGSA,A,3,03,20,09,10,16,23,07,19,30,27,,,1.58,0.89,1.31*0A
$GPRMC,201329.000,A,3520.7854,N,11748.5184,W,0.00,0.99,180415,,,D*72
$GPVTG,0.99,T,,M,0.00,N,0.01,K,D*39
$GPGSV,3,3,12,19,22,119,33,03,14,179,32,20,13,314,38,28,08,213,35*7A
$GPGGA,201323.000,3520.7854,N,11748.5184,W,2,10,0.89,626.7,M,-29.4,M,0000,0000*52
$GPGGA,201324.000,3520.7854,N,11748.5184,W,2,10,0.89,626.7,M,-29.4,M,0000,0000*55
$GPGGA,201327.000,3520.7854,N,11748.5184,W,2,10,0.89,626.7,M,-29.4,M,0000,0000*56
$GPGSA,A,3,03,20,09,10,16,23,07,19,30,27,,,1.58,0.89,1.31*0A
$GPGSV,3,1,12,09,82,005,46,23,60,116,38,07,55,303,47,48,45,205,36*7D
$GPGSV,3,2,12,10,39,282,46,16,32,043,47,30,29,275,45,27,27,085,36*79
$GPGSV,3,3,12,19,22,119,32,03,14,179,26,20,13,314,40,28,08,213,33*77
$GPRMC,201327.000,A,3520.7854,N,11748.5184,W,0.02,34.32,180415,,,D*48
$GPVTG,34.32,T,,M,0.02,N,0.03,K,D*0F
$GPGSA,A,3,03,20,09,10,16,23,07,19,30,27,,,1.58,0.89,1.30*0B
$GPRMC,201324.000,A,3520.7854,N,11748.5184,W,0.01,82.67,180415,,,D*45
$GPVTG,82.67,T,,M,0.01,N,0.01,K,D*03
$GPGGA,201330.000,3520.7854,N,11748.5184,W,2,10,0.89,626.7,M,-29.4,M,0000,0000*50
$GPGSA,A,3,03,20,09,10,16,23,07,19,30,27,,,1.58,0.89,1.31*0A
$GPRMC,201330.000,A,3520.7854,N,11748.5184,W,0.01,218.73,180415,,,D*74
$GPVTG,218.73,T,,M,0.01,N,0.02,K,D*34
$GPGSA,A,3,03,20,09,10,16,23,07,19,30,27,,,1.58,0.89,1.31*0A
$GPGSA,A,3,03,20,09,10,16,23,07,19,30,27,,,1.58,0.89,1.31*0A
$GPRMC,201328.000,A,3520.7854,N,11748.5184,W,0.02,18.26,180415,,,D*4C
$GPVTG,18.26,T,,M,0.02,N,0.03,K,D*04
$GPGGA,201326.000,3520.7854,N,11748.5184,W,2,10,0.89,626.7,M,-29.4,M,0000,0000*57
$GPGGA,201331.000,3520.7854,N,11748.5184,W,2,10,0.89,626.7,M,-29.4,M,0000,0000*51
$GPGSA,A,3,03,20,09,10,16,23,07,19,30,27,,,1.58,0.89,1.31*0A
$GPRMC,201331.000,A,3520.7854,N,11748.5184,W,0.02,169.80,180415,,,D*7F
$GPVTG,169.80,T,,M,0.02,N,0.04,K,D*38
$GPGSA,A,3,03,20,09,10,16,23,07,19,30,27,,,1.58,0.89,1.31*0A
$GPVTG,28.82,T,,M,0.01,N,0.02,K,D*0B
$GPVTG,263.57,T,,M,0.01,N,0.02,K,D*3E
$GPGGA,201322.000,3520.7854,N,11748.5184,W,2,10,0.89,626.7,M,-29.4,M,0000,0000*53
$GPGSA,A,3,03,20,09,10,16,23,07,19,30,27,,,1.58,0.89,1.31*0A
$GPGSV,3,1,12,09,82,005,47,23,60,116,38,07,55,303,47,48,45,205,37*7D
$GPGSV,3,2,12,10,39,282,47,16,32,043,48,30,29,275,45,27,27,085,37*76
$GPGGA,201325.000,3520.7854,N,11748.5184,W,2,10,0.89,626.7,M,-29.4,M,0000,0000*54
$GPGSA,A,3,03,20,09,10,16,23,07,19,30,27,,,1.58,0.89,1.31*0A
$GPRMC,201325.000,A,3520.7854,N,11748.5184,W,0.01,37.19,180415,,,D*43
$GPGGA,201332.000,3520.7854,N,11748.5184,W,2,10,0.89,626.7,M,-29.4,M,0000,0000*52
$GPGSA,A,3,03,20,09,10,16,23,07,19,30,27,,,1.58,0.89,1.31*0A
$GPGSV,3,1,12,09,82,005,47,23,60,116,34,07,55,303,47,48,45,205,34*72
$GPGSV,3,2,12,10,39,282,47,16,32,043,48,30,29,275,45,27,27,085,34*75
$GPGSV,3,3,12,19,22,119,34,03,14,179,21,20,13,314,38,28,08,213,33*79
$GPRMC,201332.000,A,3520.7854,N,11748.5184,W,0.02,218.16,180415,,,D*76
$GPVTG,218.16,T,,M,0.02,N,0.04,K,D*32
$GPVTG,37.19,T,,M,0.01,N,0.03,K,D*06
$GPGSA,A,3,03,20,09,10,16,23,07,19,30,27,,,1.58,0.89,1.31*0A
$GPRMC,201329.000,A,3520.7854,N,11748.5184,W,0.00,0.99,180415,,,D*72
$GPVTG,0.99,T,,M,0.00,N,0.01,K,D*39
$GPGSV,3,3,12,19,22,119,33,03,14,179,32,20,13,314,38,28,08,213,35*7A
$GPGGA,201323.000,3520.7854,N,11748.5184,W,2,10,0.89,626.7,M,-29.4,M,0000,0000*52
$GPGGA,201324.000,3520.7854,N,11748.5184,W,2,10,0.89,626.7,M,-29.4,M,0000,0000*55
$GPGGA,201327.000,3520.7854,N,11748.5184,W,2,10,0.89,626.7,M,-29.4,M,0000,0000*56
$GPGSA,A,3,03,20,09,10,16,23,07,19,30,27,,,1.58,0.89,1.31*0A
$GPGSV,3,1,12,09,82,005,46,23,60,116,38,07,55,303,47,48,45,205,36*7D
$GPGSV,3,2,12,10,39,282,46,16,32,043,47,30,29,275,45,27,27,085,36*79
$GPGGA,201333.000,3520.7854,N,11748.5184,W,2,10,0.89,626.7,M,-29.4,M,0000,0000*53
$GPGSA,A,3,03,20,09,10,16,23,07,19,30,27,,,1.58,0.89,1.31*0A
$GPRMC,201333.000,A,3520.7854,N,11748.5184,W,0.02,263.40,180415,,,D*78
$GPVTG,263.40,T,,M,0.02,N,0.03,K,D*3A
$GPGSV,3,3,12,19,22,119,32,03,14,179,26,20,13,314,40,28,08,213,33*77
$GPRMC,201327.000,A,3520.7854,N,11748.5184,W,0.02,34.32,180415,,,D*48
$GPVTG,34.32,T,,M,0.02,N,0.03,K,D*0F
$GPGSA,A,3,03,20,09,10,16,23,07,19,30,27,,,1.58,0.89,1.30*0B
$GPRMC,201324.000,A,3520.7854,N,11748.5184,W,0.01,82.67,180415,,,D*45
$GPVTG,82.67,T,,M,0.01,N,0.01,K,D*03
$GPGGA,201330.000,3520.7854,N,11748.5184,W,2,10,0.89,626.7,M,-29.4,M,0000,0000*50
$GPGSA,A,3,03,20,09,10,16,23,07,19,30,27,,,1.58,0.89,1.31*0A
$GPRMC,201330.000,A,3520.7854,N,11748.5184,W,0.01,218.73,180415,,,D*74
$GPVTG,218.73,T,,M,0.01,N,0.02,K,D*34
$GPGSA,A,3,03,20,09,10,16,23,07,19,30,27,,,1.58,0.89,1.31*0A
$GPRMC,201323.000,A,3520.7854,N,11748.5184,W,0.01,169.59,180415,,,D*7B
$GPVTG,169.59,T,,M,0.01,N,0.02,K,D*39
$GPGGA,201334.000,3520.7854,N,11748.5184,W,2,10,0.89,626.7,M,-29.4,M,0000,0000*54
$GPGSA,A,3,03,20,09,10,16,23,07,19,30,27,,,1.58,0.89,1.30*0B
$GPRMC,201334.000,A,3520.7854,N,11748.5184,W,0.02,235.59,180415,,,D*74
$GPVTG,235.59,T,,M,0.02,N,0.04,K,D*36
$GPRMC,201322.000,A,3520.7854,N,11748.5184,W,0.01,257.51,180415,,,D*7C
$GPGSA,A,3,03,20,09,10,16,23,07,19,30,27,,,1.58,0.89,1.31*0A
$GPRMC,201328.000,A,3520.7854,N,11748.5184,W,0.02,18.26,180415,,,D*4C
$GPGSA,A,3,03,20,09,10,16,23,07,19,30,27,,,1.58,0.89,1.31*0A
$GPRMC,201335.000,A,3520.7854,N,11748.5184,W,0.02,152.68,180415,,,D*75
$GPVTG,152.68,T,,M,0.02,N,0.04,K,D*36
$GPRMC,201331.000,A,3520.7854,N,11748.5184,W,0.02,169.80,180415,,,D*7F
$GPGSA,A,3,03,20,09,10,16,23,07,19,30,27,,,1.58,0.89,1.31*0A
$GPGSV,3,1,12,09,82,005,47,23,60,116,38,07,55,303,47,48,45,205,37*7D
$GPGSV,3,2,12,10,39,282,47,16,32,043,48,30,29,275,45,27,27,085,37*76
$GPGGA,201325.000,3520.7854,N,11748.5184,W,2,10,0.89,626.7,M,-29.4,M,0000,0000*54
$GPGSA,A,3,03,20,09,10,16,23,07,19,30,27,,,1.58,0.89,1.31*0A
$GPRMC,201325.000,A,3520.7854,N,11748.5184,W,0.01,37.19,180415,,,D*43
$GPGGA,201336.000,3520.7854,N,11748.5184,W,2,10,0.89,626.7,M,-29.4,M,0000,0000*56
$GPGSA,A,3,03,20,09,10,16,23,07,19,30,27,,,1.58,0.89,1.31*0A
$GPRMC,201336.000,A,3520.7854,N,11748.5184,W,0.02,113.72,180415,,,D*78
$GPVTG,113.72,T,,M,0.02,N,0.03,K,D*3F
$GPGGA,201332.000,3520.7854,N,11748.5184,W,2,10,0.89,626.7,M,-29.4,M,0000,0000*52
$GPGSA,A,3,03,20,09,10,16,23,07,19,30,27,,,1.58,0.89,1.31*0A
$GPGSV,3,1,12,09,82,005,47,23,60,116,34,07,55,303,47,48,45,205,34*72
$GPGSV,3,2,12,10,39,282,47,16,32,043,48,30,29,275,45,27,27,085,34*75
$GPGSV,3,3,12,19,22,119,34,03,14,179,21,20,13,314,38,28,08,213,33*79
$GPRMC,201332.000,A,3520.7854,N,11748.5184,W,0.02,218.16,180415,,,D*76
$GPVTG,218.16,T,,M,0.02,N,0.04,K,D*32
$GPVTG,37.19,T,,M,0.01,N,0.03,K,D*06
$GPGGA,201329.000,3520.7854,N,11748.5184,W,2,10,0.89,626.7,M,-29.4,M,0000,0000*58
$GPGSA,A,3,03,20,09,10,16,23,07,19,30,27,,,1.58,0.89,1.31*0A
$GPRMC,201329.000,A,3520.7854,N,11748.5184,W,0.00,0.99,180415,,,D*72
$GPVTG,0.99,T,,M,0.00,N,0.01,K,D*39
$GPGGA,201337.000,3520.7854,N,11748.5184,W,2,10,0.89,626.7,M,-29.4,M,0000,0000*57
$GPGSA,A,3,03,20,09,10,16,23,07,19,30,27,,,1.58,0.89,1.30*0B
$GPGSV,3,1,12,09,82,005,47,23,60,117,37,07,55,303,47,48,45,205,36*72
$GPGSV,3,2,12,10,39,282,47,16,32,043,48,30,29,275,45,27,27,085,33*72
$GPGSV,3,3,12,19,22,119,35,03,14,179,33,20,13,314,39,28,08,213,31*78
$GPRMC,201337.000,A,3520.7854,N,11748.5184,W,0.02,96.32,180415,,,D*41
$GPVTG,96.32,T,,M,0.02,N,0.04,K,D*00
$GPGSV,3,3,12,19,22,119,33,03,14,179,32,20,13,314,38,28,08,213,35*7A
$GPGGA,201323.000,3520.7854,N,11748.5184,W,2,10,0.89,626.7,M,-29.4,M,0000,0000*52
$GPGGA,201324.000,3520.7854,N,11748.5184,W,2,10,0.89,626.7,M,-29.4,M,0000,0000*55
$GPGGA,201327.000,3520.7854,N,11748.5184,W,2,10,0.89,626.7,M,-29.4,M,0000,0000*56
$GPGSA,A,3,03,20,09,10,16,23,07,19,30,27,,,1.58,0.89,1.31*0A
$GPGSV,3,1,12,09,82,005,46,23,60,116,38,07,55,303,47,48,45,205,36*7D
$GPGSV,3,2,12,10,39,282,46,16,32,043,47,30,29,275,45,27,27,085,36*79
$GPGGA,201333.000,3520.7854,N,11748.5184,W,2,10,0.89,626.7,M,-29.4,M,0000,0000*53
$GPGSA,A,3,03,20,09,10,16,23,07,19,30,27,,,1.58,0.89,1.31*0A
$GPRMC,201333.000,A,3520.7854,N,11748.5184,W,0.02,263.40,180415,,,D*78
$GPVTG,263.40,T,,M,0.02,N,0.03,K,D*3A
$GPGSV,3,3,12,19,22,119,32,03,14,179,26,20,13,314,40,28,08,213,33*77
$GPRMC,201327.000,A,3520.7854,N,11748.5184,W,0.02,34.32,180415,,,D*48
$GPGGA,201338.000,3520.7854,N,11748.5184,W,2,10,0.89,626.7,M,-29.4,M,0000,0000*58
$GPGSA,A,3,03,20,09,10,16,23,07,19,30,27,,,1.58,0.89,1.31*0A
$GPRMC,201338.000,A,3520.7854,N,11748.5184,W,0.02,87.09,180415,,,D*46
$GPVTG,87.09,T,,M,0.02,N,0.04,K,D*08
$GPVTG,34.32,T,,M,0.02,N,0.03,K,D*0F
$GPVTG,82.67,T,,M,0.01,N,0.01,K,D*03
$GPGGA,201330.000,3520.7854,N,11748.5184,W,2,10,0.89,626.7,M,-29.4,M,0000,0000*50
$GPGSA,A,3,03,20,09,10,16,23,07,19,30,27,,,1.58,0.89,1.31*0A
$GPRMC,201330.000,A,3520.7854,N,11748.5184,W,0.01,218.73,180415,,,D*74
$GPVTG,218.73,T,,M,0.01,N,0.02,K,D*34
$GPGSA,A,3,03,20,09,10,16,23,07,19,30,27,,,1.58,0.89,1.31*0A
$GPRMC,201323.000,A,3520.7854,N,11748.5184,W,0.01,169.59,180415,,,D*7B
$GPVTG,169.59,T,,M,0.01,N,0.02,K,D*39
$GPGGA,201334.000,3520.7854,N,11748.5184,W,2,10,0.89,626.7,M,-29.4,M,0000,0000*54
$GPGGA,201339.000,3520.7854,N,11748.5184,W,2,10,0.89,626.7,M,-29.4,M,0000,0000*59
$GPGSA,A,3,03,20,09,10,16,23,07,19,30,27,,,1.58,0.89,1.31*0A
$GPRMC,201339.000,A,3520.7854,N,11748.5184,W,0.02,69.92,180415,,,D*45
$GPVTG,69.92,T,,M,0.02,N,0.03,K,D*0D
$GPGSA,A,3,03,20,09,10,16,23,07,19,30,27,,,1.58,0.89,1.30*0B
$GPGSA,A,3,03,20,09,10,16,23,07,19,30,27,,,1.58,0.89,1.31*0A
$GPRMC,201328.000,A,3520.7854,N,11748.5184,W,0.02,18.26,180415,,,D*4C
$GPVTG,18.26,T,,M,0.02,N,0.03,K,D*04
$GPGGA,201340.000,3520.7854,N,11748.5184,W,2,10,0.89,626.7,M,-29.4,M,0000,0000*57
$GPGSA,A,3,03,20,09,10,16,23,07,19,30,27,,,1.58,0.89,1.31*0A
$GPRMC,201340.000,A,3520.7854,N,11748.5184,W,0.02,75.24,180415,,,D*4B
$GPVTG,75.24,T,,M,0.02,N,0.04,K,D*0A
$GPGGA,201326.000,3520.7854,N,11748.5184,W,2,10,0.89,626.7,M,-29.4,M,0000,0000*57
$GPGSA,A,3,03,20,09,10,16,23,07,19,30,27,,,1.58,0.89,1.31*0A
$GPRMC,201348.000,A,3520.7854,N,11748.5184,W,0.01,341.28,180415,,,D*78
$GPVTG,341.28,T,,M,0.01,N,0.02,K,D*37
$GPGSV,3,1,12,09,82,005,43,23,60,117,37,07,55,303,44,48,45,205,32*71
$GPGSV,3,2,12,10,39,282,44,16,32,043,45,30,29,275,44,27,27,084,34*7B
$GPGSV,3,3,12,19,22,119,31,03,14,179,26,20,13,314,33,28,08,213,27*75
$GPRMC,201347.000,A,3520.7854,N,11748.5184,W,0.01,105.03,180415,,,D*7C
$GPGSA,A,3,03,20,09,10,16,23,07,19,30,27,,,1.58,0.89,1.31*0A
$GPRMC,201340.000,A,3520.7854,N,11748.5184,W,0.02,75.24,180415,,,D*4B
$GPVTG,75.24,T,,M,0.02,N,0.04,K,D*0A
$GPGGA,201326.000,3520.7854,N,11748.5184,W,2,10,0.89,626.7,M,-29.4,M,0000,0000*57
$GPGSA,A,3,03,20,09,10,16,23,07,19,30,27,,,1.58,0.89,1.31*0A
$GPRMC,201328.000,A,3520.7854,N,11748.5184,W,0.02,18.26,180415,,,D*4C
$GPGGA,201349.000,3520.7854,N,11748.5184,W,2,10,0.89,626.7,M,-29.4,M,0000,0000*5E
$GPGSA,A,3,03,20,09,10,16,23,07,19,30,27,,,1.58,0.89,1.31*0A
$GPRMC,201349.000,A,3520.7854,N,11748.5184,W,0.02,32.55,180415,,,D*47
$GPVTG,32.55,T,,M,0.02,N,0.03,K,D*08
$GPVTG,18.26,T,,M,0.02,N,0.03,K,D*04
$GPGSA,A,3,03,20,09,10,16,23,07,19,30,27,,,1.58,0.89,1.31*0A
$GPGGA,201348.000,3520.7854,N,11748.5184,W,2,10,0.89,626.7,M,-29.4,M,0000,0000*5F
$GPGSA,A,3,03,20,09,10,16,23,07,19,30,27,,,1.58,0.89,1.31*0A
$GPRMC,201348.000,A,3520.7854,N,11748.5184,W,0.01,341.28,180415,,,D*78
$GPVTG,341.28,T,,M,0.01,N,0.02,K,D*37
$GPGSV,3,1,12,09,82,005,43,23,60,117,37,07,55,303,44,48,45,205,32*71
$GPGSV,3,2,12,10,39,282,44,16,32,043,45,30,29,275,44,27,27,084,34*7B
$GPGSV,3,3,12,19,22,119,31,03,14,179,26,20,13,314,33,28,08,213,27*75
$GPGGA,201350.000,3520.7854,N,11748.5184,W,2,10,0.89,626.7,M,-29.4,M,0000,0000*56
$GPGSA,A,3,03,20,09,10,16,23,07,19,30,27,,,1.58,0.89,1.31*0A
$GPRMC,201350.000,A,3520.7854,N,11748.5184,W,0.02,7.55,180415,,,D*79
$GPVTG,7.55,T,,M,0.02,N,0.04,K,D*39
$GPRMC,201347.000,A,3520.7854,N,11748.5184,W,0.01,105.03,180415,,,D*7C
$GPGSA,A,3,03,20,09,10,16,23,07,19,30,27,,,1.58,0.89,1.31*0A
$GPRMC,201340.000,A,3520.7854,N,11748.5184,W,0.02,75.24,180415,,,D*4B
$GPVTG,75.24,T,,M,0.02,N,0.04,K,D*0A
$GPGGA,201326.000,3520.7854,N,11748.5184,W,2,10,0.89,626.7,M,-29.4,M,0000,0000*57
$GPGSA,A,3,03,20,09,10,16,23,07,19,30,27,,,1.58,0.89,1.31*0A
$GPRMC,201328.000,A,3520.7854,N,11748.5184,W,0.02,18.26,180415,,,D*4C
$GPGGA,201349.000,3520.7854,N,11748.5184,W,2,10,0.89,626.7,M,-29.4,M,0000,0000*5E
$GPGSA,A,3,03,20,09,10,16,23,07,19,30,27,,,1.58,0.89,1.31*0A
$GPRMC,201349.000,A,3520.7854,N,11748.5184,W,0.02,32.55,180415,,,D*47
$GPGGA,201351.000,3520.7854,N,11748.5184,W,2,10,0.89,626.7,M,-29.4,M,0000,0000*57
$GPGSA,A,3,03,20,09,10,16,23,07,19,30,27,,,1.58,0.89,1.31*0A
$GPRMC,201351.000,A,3520.7854,N,11748.5184,W,0.01,40.72,180415,,,D*4D
$GPVTG,40.72,T,,M,0.01,N,0.02,K,D*0A
$GPVTG,32.55,T,,M,0.02,N,0.03,K,D*08
$GPGSA,A,3,03,20,09,10,16,23,07,19,30,27,,,1.58,0.89,1.31*0A
$GPGGA,201348.000,3520.7854,N,11748.5184,W,2,10,0.89,626.7,M,-29.4,M,0000,0000*5F
$GPGSA,A,3,03,20,09,10,16,23,07,19,30,27,,,1.58,0.89,1.31*0A
$GPRMC,201348.000,A,3520.7854,N,11748.5184,W,0.01,341.28,180415,,,D*78
$GPVTG,341.28,T,,M,0.01,N,0.02,K,D*37
$GPGSV,3,1,12,09,82,005,43,23,60,117,37,07,55,303,44,48,45,205,32*71
$GPGSV,3,2,12,10,39,282,44,16,32,043,45,30,29,275,44,27,27,084,34*7B
$GPGSV,3,3,12,19,22,119,31,03,14,179,26,20,13,314,33,28,08,213,27*75
$GPGGA,201350.000,3520.7854,N,11748.5184,W,2,10,0.89,626.7,M,-29.4,M,0000,0000*56
$GPGGA,201352.000,3520.7854,N,11748.5184,W,2,10,0.89,626.7,M,-29.4,M,0000,0000*54
$GPGSA,A,3,03,20,09,10,16,23,07,19,30,27,,,1.58,0.89,1.30*0B
$GPGSV,3,1,12,09,82,005,46,23,60,117,40,07,55,303,46,48,45,205,35*71
$GPGSV,3,2,12,10,39,282,47,16,32,043,46,30,29,275,46,27,27,084,37*7A
$GPGSV,3,3,12,19,22,119,33,20,13,314,37,03,13,179,30,28,08,213,28*7C
$GPRMC,201352.000,A,3520.7854,N,11748.5184,W,0.01,25.22,180415,,,D*48
$GPVTG,25.22,T,,M,0.01,N,0.02,K,D*0C
$GPGSA,A,3,03,20,09,10,16,23,07,19,30,27,,,1.58,0.89,1.31*0A
$GPVTG,7.55,T,,M,0.02,N,0.04,K,D*39
$GPRMC,201347.000,A,3520.7854,N,11748.5184,W,0.01,105.03,180415,,,D*7C
$GPGSA,A,3,03,20,09,10,16,23,07,19,30,27,,,1.58,0.89,1.31*0A
$GPRMC,201340.000,A,3520.7854,N,11748.5184,W,0.02,75.24,180415,,,D*4B
$GPGSA,A,3,03,20,09,10,16,23,07,19,30,27,,,1.58,0.89,1.31*0A
$GPRMC,201353.000,A,3520.7854,N,11748.5184,W,0.02,326.51,180415,,,D*7E
$GPVTG,326.51,T,,M,0.02,N,0.04,K,D*3D
$GPGGA,201349.000,3520.7854,N,11748.5184,W,2,10,0.89,626.7,M,-29.4,M,0000,0000*5E
$GPGSA,A,3,03,20,09,10,16,23,07,19,30,27,,,1.58,0.89,1.31*0A
$GPRMC,201349.000,A,3520.7854,N,11748.5184,W,0.02,32.55,180415,,,D*47
$GPGGA,201351.000,3520.7854,N,11748.5184,W,2,10,0.89,626.7,M,-29.4,M,0000,0000*57
$GPGSA,A,3,03,20,09,10,16,23,07,19,30,27,,,1.58,0.89,1.31*0A
$GPRMC,201351.000,A,3520.7854,N,11748.5184,W,0.01,40.72,180415,,,D*4D
$GPVTG,40.72,T,,M,0.01,N,0.02,K,D*0A
$GPVTG,32.55,T,,M,0.02,N,0.03,K,D*08
$GPVTG,18.26,T,,M,0.02,N,0.03,K,D*04
$GPGGA,201347.000,3520.7854,N,11748.5184,W,2,10,0.89,626.7,M,-29.4,M,0000,0000*50
$GPGSA,A,3,03,20,09,10,16,23,07,19,30,27,,,1.58,0.89,1.31*0A
$GPGGA,201348.000,3520.7854,N,11748.5184,W,2,10,0.89,626.7,M,-29.4,M,0000,0000*5F
$GPGSA,A,3,03,20,09,10,16,23,07,19,30,27,,,1.58,0.89,1.31*0A
$GPGGA,201354.000,3520.7854,N,11748.5184,W,2,10,0.89,626.7,M,-29.4,M,0000,0000*52
$GPGSA,A,3,03,20,09,10,16,23,07,19,30,27,,,1.58,0.89,1.31*0A
$GPRMC,201354.000,A,3520.7854,N,11748.5184,W,0.01,296.55,180415,,,D*74
$GPVTG,296.55,T,,M,0.01,N,0.02,K,D*36
$GPRMC,201348.000,A,3520.7854,N,11748.5184,W,0.01,341.28,180415,,,D*78
$GPGGA,201352.000,3520.7854,N,11748.5184,W,2,10,0.89,626.7,M,-29.4,M,0000,0000*54
$GPGSA,A,3,03,20,09,10,16,23,07,19,30,27,,,1.58,0.89,1.30*0B
$GPGSV,3,1,12,09,82,005,46,23,60,117,40,07,55,303,46,48,45,205,35*71
$GPGSV,3,2,12,10,39,282,47,16,32,043,46,30,29,275,46,27,27,084,37*7A
$GPGSV,3,3,12,19,22,119,33,20,13,314,37,03,13,179,30,28,08,213,28*7C
$GPRMC,201352.000,A,3520.7854,N,11748.5184,W,0.01,25.22,180415,,,D*48
$GPGGA,201355.000,3520.7854,N,11748.5184,W,2,10,0.89,626.7,M,-29.4,M,0000,0000*53
$GPGSA,A,3,03,20,09,10,16,23,07,19,30,27,,,1.58,0.89,1.31*0A
$GPRMC,201355.000,A,3520.7854,N,11748.5184,W,0.02,263.51,180415,,,D*78
$GPVTG,263.51,T,,M,0.02,N,0.04,K,D*3D
$GPVTG,25.22,T,,M,0.01,N,0.02,K,D*0C
$GPVTG,7.55,T,,M,0.02,N,0.04,K,D*39
$GPRMC,201347.000,A,3520.7854,N,11748.5184,W,0.01,105.03,180415,,,D*7C
$GPGSA,A,3,03,20,09,10,16,23,07,19,30,27,,,1.58,0.89,1.31*0A
$GPRMC,201340.000,A,3520.7854,N,11748.5184,W,0.02,75.24,180415,,,D*4B
$GPVTG,75.24,T,,M,0.02,N,0.04,K,D*0A
$GPGGA,201326.000,3520.7854,N,11748.5184,W,2,10,0.89,626.7,M,-29.4,M,0000,0000*57
$GPGSA,A,3,03,20,09,10,16,23,07,19,30,27,,,1.58,0.89,1.31*0A
$GPRMC,201328.000,A,3520.7854,N,11748.5184,W,0.02,18.26,180415,,,D*4C
$GPGGA,201356.000,3520.7854,N,11748.5184,W,2,10,0.89,626.7,M,-29.4,M,0000,0000*50
$GPGSA,A,3,03,20,09,10,16,23,07,19,30,27,,,1.58,0.89,1.31*0A
$GPRMC,201356.000,A,3520.7854,N,11748.5184,W,0.02,255.17,180415,,,D*7C
$GPVTG,255.17,T,,M,0.02,N,0.03,K,D*3D
$GPGGA,201353.000,3520.7854,N,11748.5184,W,2,10,0.89,626.7,M,-29.4,M,0000,0000*55
$GPGSA,A,3,03,20,09,10,16,23,07,19,30,27,,,1.58,0.89,1.31*0A
$GPRMC,201353.000,A,3520.7854,N,11748.5184,W,0.02,326.51,180415,,,D*7E
$GPVTG,326.51,T,,M,0.02,N,0.04,K,D*3D
$GPGGA,201349.000,3520.7854,N,11748.5184,W,2,10,0.89,626.7,M,-29.4,M,0000,0000*5E
$GPGSA,A,3,03,20,09,10,16,23,07,19,30,27,,,1.58,0.89,1.31*0A
$GPRMC,201349.000,A,3520.7854,N,11748.5184,W,0.02,32.55,180415,,,D*47
$GPGGA,201351.000,3520.7854,N,11748.5184,W,2,10,0.89,626.7,M,-29.4,M,0000,0000*57
$GPGSA,A,3,03,20,09,10,16,23,07,19,30,27,,,1.58,0.89,1.31*0A
$GPRMC,201351.000,A,3520.7854,N,11748.5184,W,0.01,40.72,180415,,,D*4D
$GPVTG,40.72,T,,M,0.01,N,0.02,K,D*0A
$GPVTG,32.55,T,,M,0.02,N,0.03,K,D*08
$GPGGA,201357.000,3520.7854,N,11748.5184,W,2,10,0.89,626.7,M,-29.4,M,0000,0000*51
$GPGSA,A,3,03,20,09,10,16,23,07,19,30,27,,,1.58,0.89,1.31*0A
$GPGSV,3,1,12,09,82,006,45,23,60,117,36,07,55,303,45,48,45,205,35*73
$GPGSV,3,2,12,10,39,282,47,16,32,043,45,30,29,275,45,27,27,084,36*7B
$GPGSV,3,3,12,19,22,119,33,20,13,314,38,03,13,179,31,28,08,213,26*7C
$GPRMC,201357.000,A,3520.7854,N,11748.5184,W,0.01,215.25,180415,,,D*7B
$GPVTG,215.25,T,,M,0.01,N,0.03,K,D*3B
$GPVTG,18.26,T,,M,0.02,N,0.03,K,D*04
$GPGSA,A,3,03,20,09,10,16,23,07,19,30,27,,,1.58,0.89,1.31*0A
$GPGGA,201348.000,3520.7854,N,11748.5184,W,2,10,0.89,626.7,M,-29.4,M,0000,0000*5F
$GPGSA,A,3,03,20,09,10,16,23,07,19,30,27,,,1.58,0.89,1.31*0A
$GPGGA,201354.000,3520.7854,N,11748.5184,W,2,10,0.89,626.7,M,-29.4,M,0000,0000*52
$GPGSA,A,3,03,20,09,10,16,23,07,19,30,27,,,1.58,0.89,1.31*0A
$GPRMC,201354.000,A,3520.7854,N,11748.5184,W,0.01,296.55,180415,,,D*74
$GPVTG,296.55,T,,M,0.01,N,0.02,K,D*36
$GPRMC,201348.000,A,3520.7854,N,11748.5184,W,0.01,341.28,180415,,,D*78
$GPVTG,341.28,T,,M,0.01,N,0.02,K,D*37
$GPGSV,3,1,12,09,82,005,43,23,60,117,37,07,55,303,44,48,45,205,32*71
$GPGGA,201358.000,3520.7854,N,11748.5184,W,2,10,0.89,626.7,M,-29.4,M,0000,0000*5E
$GPGSA,A,3,03,20,09,10,16,23,07,19,30,27,,,1.58,0.89,1.31*0A
$GPRMC,201358.000,A,3520.7854,N,11748.5184,W,0.01,200.78,180415,,,D*78
$GPVTG,200.78,T,,M,0.01,N,0.02,K,D*36
$GPGSV,3,2,12,10,39,282,44,16,32,043,45,30,29,275,44,27,27,084,34*7B
$GPGSV,3,3,12,19,22,119,31,03,14,179,26,20,13,314,33,28,08,213,27*75
$GPGGA,201350.000,3520.7854,N,11748.5184,W,2,10,0.89,626.7,M,-29.4,M,0000,0000*56
$GPGGA,201352.000,3520.7854,N,11748.5184,W,2,10,0.89,626.7,M,-29.4,M,0000,0000*54
$GPGSA,A,3,03,20,09,10,16,23,07,19,30,27,,,1.58,0.89,1.30*0B
$GPGSV,3,1,12,09,82,005,46,23,60,117,40,07,55,303,46,48,45,205,35*71
$GPGSV,3,2,12,10,39,282,47,16,32,043,46,30,29,275,46,27,27,084,37*7A
$GPGSV,3,3,12,19,22,119,33,20,13,314,37,03,13,179,30,28,08,213,28*7C
$GPGSA,A,3,03,20,09,10,16,23,07,19,30,27,,,1.58,0.89,1.31*0A
$GPRMC,201359.000,A,3520.7854,N,11748.5184,W,0.02,137.59,180415,,,D*7E
$GPVTG,137.59,T,,M,0.02,N,0.04,K,D*37
$GPVTG,263.51,T,,M,0.02,N,0.04,K,D*3D
$GPVTG,7.55,T,,M,0.02,N,0.04,K,D*39
$GPRMC,201347.000,A,3520.7854,N,11748.5184,W,0.01,105.03,180415,,,D*7C
$GPGSA,A,3,03,20,09,10,16,23,07,19,30,27,,,1.58,0.89,1.31*0A
$GPRMC,201340.000,A,3520.7854,N,11748.5184,W,0.02,75.24,180415,,,D*4B
$GPVTG,75.24,T,,M,0.02,N,0.04,K,D*0A
$GPGGA,201326.000,3520.7854,N,11748.5184,W,2,10,0.89,626.7,M,-29.4,M,0000,0000*57
$GPGSA,A,3,03,20,09,10,16,23,07,19,30,27,,,1.58,0.89,1.31*0A
$GPGGA,201400.000,3520.7854,N,11748.5184,W,2,10,0.89,626.7,M,-29.4,M,0000,0000*54
$GPGSA,A,3,03,20,09,10,16,23,07,19,30,27,,,1.58,0.89,1.31*0A
$GPRMC,201400.000,A,3520.7854,N,11748.5184,W,0.02,154.47,180415,,,D*7F
$GPVTG,154.47,T,,M,0.02,N,0.03,K,D*3A
$GPRMC,201328.000,A,3520.7854,N,11748.5184,W,0.02,18.26,180415,,,D*4C
$GPGGA,201356.000,3520.7854,N,11748.5184,W,2,10,0.89,626.7,M,-29.4,M,0000,0000*50
$GPGSA,A,3,03,20,09,10,16,23,07,19,30,27,,,1.58,0.89,1.31*0A
$GPRMC,201356.000,A,3520.7854,N,11748.5184,W,0.02,255.17,180415,,,D*7C
$GPVTG,255.17,T,,M,0.02,N,0.03,K,D*3D
$GPGGA,201353.000,3520.7854,N,11748.5184,W,2,10,0.89,626.7,M,-29.4,M,0000,0000*55
$GPGSA,A,3,03,20,09,10,16,23,07,19,30,27,,,1.58,0.89,1.31*0A
$GPRMC,201353.000,A,3520.7854,N,11748.5184,W,0.02,326.51,180415,,,D*7E
$GPVTG,326.51,T,,M,0.02,N,0.04,K,D*3D
$GPGGA,201349.000,3520.7854,N,11748.5184,W,2,10,0.89,626.7,M,-29.4,M,0000,0000*5E
$GPGSA,A,3,03,20,09,10,16,23,07,19,30,27,,,1.58,0.89,1.31*0A
$GPRMC,201349.000,A,3520.7854,N,11748.5184,W,0.02,32.55,180415,,,D*47
$GPGGA,201401.000,3520.7854,N,11748.5184,W,2,10,0.89,626.7,M,-29.4,M,0000,0000*55
$GPGSA,A,3,03,20,09,10,16,23,07,19,30,27,,,1.58,0.89,1.31*0A
$GPRMC,201401.000,A,3520.7854,N,11748.5184,W,0.01,30.99,180415,,,D*4D
$GPVTG,30.99,T,,M,0.01,N,0.02,K,D*08
$GPGGA,201351.000,3520.7854,N,11748.5184,W,2,10,0.89,626.7,M,-29.4,M,0000,0000*57
$GPGSA,A,3,03,20,09,10,16,23,07,19,30,27,,,1.58,0.89,1.31*0A
$GPRMC,201351.000,A,3520.7854,N,11748.5184,W,0.01,40.72,180415,,,D*4D
$GPVTG,40.72,T,,M,0.01,N,0.02,K,D*0A
$GPVTG,32.55,T,,M,0.02,N,0.03,K,D*08
$GPGGA,201357.000,3520.7854,N,11748.5184,W,2,10,0.89,626.7,M,-29.4,M,0000,0000*51
$GPGSA,A,3,03,20,09,10,16,23,07,19,30,27,,,1.58,0.89,1.31*0A
$GPGSV,3,1,12,09,82,006,45,23,60,117,36,07,55,303,45,48,45,205,35*73
$GPGSV,3,2,12,10,39,282,47,16,32,043,45,30,29,275,45,27,27,084,36*7B
$GPGSV,3,3,12,19,22,119,33,20,13,314,38,03,13,179,31,28,08,213,26*7C
$GPRMC,201357.000,A,3520.7854,N,11748.5184,W,0.01,215.25,180415,,,D*7B
$GPVTG,215.25,T,,M,0.01,N,0.03,K,D*3B
$GPVTG,18.26,T,,M,0.02,N,0.03,K,D*04
$GPGGA,201402.000,3520.7854,N,11748.5184,W,2,10,0.89,626.7,M,-29.4,M,0000,0000*56
$GPGSA,A,3,03,20,09,10,16,23,07,19,30,27,,,1.58,0.89,1.31*0A
$GPGSV,3,1,12,09,82,006,46,23,60,117,36,07,55,303,45,48,45,205,35*70
$GPGSV,3,2,12,10,39,282,46,16,32,043,45,30,29,275,44,27,27,084,36*7B
$GPGSV,3,3,12,19,22,119,33,20,13,314,40,03,13,179,30,28,08,213,22*76
$GPRMC,201402.000,A,3520.7854,N,11748.5184,W,0.01,70.32,180415,,,D*4B
$GPVTG,70.32,T,,M,0.01,N,0.02,K,D*0D
$GPGGA,201347.000,3520.7854,N,11748.5184,W,2,10,0.89,626.7,M,-29.4,M,0000,0000*50
$GPGSA,A,3,03,20,09,10,16,23,07,19,30,27,,,1.58,0.89,1.31*0A
$GPGGA,201348.000,3520.7854,N,11748.5184,W,2,10,0.89,626.7,M,-29.4,M,0000,0000*5F
$GPGSA,A,3,03,20,09,10,16,23,07,19,30,27,,,1.58,0.89,1.31*0A
$GPGGA,201354.000,3520.7854,N,11748.5184,W,2,10,0.89,626.7,M,-29.4,M,0000,0000*52
$GPGSA,A,3,03,20,09,10,16,23,07,19,30,27,,,1.58,0.89,1.31*0A
$GPRMC,201354.000,A,3520.7854,N,11748.5184,W,0.01,296.55,180415,,,D*74
$GPVTG,296.55,T,,M,0.01,N,0.02,K,D*36
$GPRMC,201348.000,A,3520.7854,N,11748.5184,W,0.01,341.28,180415,,,D*78
$GPVTG,341.28,T,,M,0.01,N,0.02,K,D*37
$GPGSV,3,1,12,09,82,005,43,23,60,117,37,07,55,303,44,48,45,205,32*71
$GPGGA,201403.000,3520.7854,N,11748.5184,W,2,10,0.89,626.8,M,-29.4,M,0000,0000*58
$GPGSA,A,3,03,20,09,10,16,23,07,19,30,27,,,1.58,0.89,1.30*0B
$GPRMC,201403.000,A,3520.7854,N,11748.5184,W,0.01,68.05,180415,,,D*47
$GPVTG,68.05,T,,M,0.01,N,0.02,K,D*00
$GPGGA,201358.000,3520.7854,N,11748.5184,W,2,10,0.89,626.7,M,-29.4,M,0000,0000*5E
$GPGSA,A,3,03,20,09,10,16,23,07,19,30,27,,,1.58,0.89,1.31*0A
$GPRMC,201358.000,A,3520.7854,N,11748.5184,W,0.01,200.78,180415,,,D*78
$GPVTG,200.78,T,,M,0.01,N,0.02,K,D*36
$GPGSV,3,2,12,10,39,282,44,16,32,043,45,30,29,275,44,27,27,084,34*7B
$GPGSV,3,3,12,19,22,119,31,03,14,179,26,20,13,314,33,28,08,213,27*75
$GPGGA,201350.000,3520.7854,N,11748.5184,W,2,10,0.89,626.7,M,-29.4,M,0000,0000*56
$GPGGA,201352.000,3520.7854,N,11748.5184,W,2,10,0.89,626.7,M,-29.4,M,0000,0000*54
$GPGSA,A,3,03,20,09,10,16,23,07,19,30,27,,,1.58,0.89,1.30*0B
$GPGSV,3,1,12,09,82,005,46,23,60,117,40,07,55,303,46,48,45,205,35*71
$GPGSV,3,2,12,10,39,282,47,16,32,043,46,30,29,275,46,27,27,084,37*7A
$GPGSV,3,3,12,19,22,119,33,20,13,314,37,03,13,179,30,28,08,213,28*7C
$GPRMC,201352.000,A,3520.7854,N,11748.5184,W,0.01,25.22,180415,,,D*48
$GPGGA,201404.000,3520.7854,N,11748.5184,W,2,10,0.89,626.8,M,-29.4,M,0000,0000*5F
$GPVTG,200.78,T,,M,0.01,N,0.02,K,D*36
$GPGSV,3,2,12,10,39,282,44,16,32,043,45,30,29,275,44,27,27,084,34*7B
$GPGSA,A,3,03,20,09,10,16,23,07,19,30,27,,,1.58,0.89,1.31*0A
$GPRMC,201411.000,A,3520.7854,N,11748.5185,W,0.02,123.53,180415,,,D*7B
$GPVTG,123.53,T,,M,0.02,N,0.03,K,D*3F
$GPGSV,3,2,12,10,39,282,47,16,32,043,46,30,29,275,46,27,27,084,37*7A
$GPGSV,3,3,12,19,22,119,33,20,13,314,37,03,13,179,30,28,08,213,28*7C
$GPRMC,201352.000,A,3520.7854,N,11748.5184,W,0.01,25.22,180415,,,D*48
$GPGGA,201404.000,3520.7854,N,11748.5184,W,2,10,0.89,626.8,M,-29.4,M,0000,0000*5F
$GPVTG,200.78,T,,M,0.01,N,0.02,K,D*36
$GPGSV,3,2,12,10,39,282,44,16,32,043,45,30,29,275,44,27,27,084,34*7B
$GPGSV,3,3,12,19,22,119,31,03,14,179,26,20,13,314,33,28,08,213,27*75
$GPGGA,201350.000,3520.7854,N,11748.5184,W,2,10,0.89,626.7,M,-29.4,M,0000,0000*56
$GPGGA,201352.000,3520.7854,N,11748.5184,W,2,10,0.89,626.7,M,-29.4,M,0000,0000*54
$GPGSA,A,3,03,20,09,10,16,23,07,19,30,27,,,1.58,0.89,1.30*0B
$GPGSV,3,1,12,09,82,005,46,23,60,117,40,07,55,303,46,48,45,205,35*71
$GPGGA,201412.000,3520.7854,N,11748.5185,W,2,10,0.89,626.8,M,-29.4,M,0000,0000*59
$GPGSA,A,3,03,20,09,10,16,23,07,19,30,27,,,1.58,0.89,1.31*0A
$GPGSV,3,1,12,09,82,006,47,23,59,117,38,07,55,303,46,48,45,205,35*76
$GPGSV,3,2,12,10,39,282,46,16,32,043,44,30,29,275,47,27,27,084,36*79
$GPGSV,3,3,12,19,23,119,35,20,14,314,42,03,13,179,31,28,08,213,22*75
$GPRMC,201412.000,A,3520.7854,N,11748.5185,W,0.01,121.57,180415,,,D*7D
$GPVTG,121.57,T,,M,0.01,N,0.01,K,D*38
$GPGGA,201411.000,3520.7854,N,11748.5185,W,2,10,0.89,626.8,M,-29.4,M,0000,0000*5A
$GPGSA,A,3,03,20,09,10,16,23,07,19,30,27,,,1.58,0.89,1.31*0A
$GPRMC,201411.000,A,3520.7854,N,11748.5185,W,0.02,123.53,180415,,,D*7B
$GPVTG,123.53,T,,M,0.02,N,0.03,K,D*3F
$GPGGA,201413.000,3520.7854,N,11748.5185,W,2,10,0.89,626.8,M,-29.4,M,0000,0000*58
$GPGSA,A,3,03,20,09,10,16,23,07,19,30,27,,,1.58,0.89,1.31*0A
$GPRMC,201413.000,A,3520.7854,N,11748.5185,W,0.01,63.62,180415,,,D*4D
$GPVTG,63.62,T,,M,0.01,N,0.02,K,D*0A
$GPGSV,3,2,12,10,39,282,47,16,32,043,46,30,29,275,46,27,27,084,37*7A
$GPGSV,3,3,12,19,22,119,33,20,13,314,37,03,13,179,30,28,08,213,28*7C
$GPRMC,201352.000,A,3520.7854,N,11748.5184,W,0.01,25.22,180415,,,D*48
$GPGGA,201404.000,3520.7854,N,11748.5184,W,2,10,0.89,626.8,M,-29.4,M,0000,0000*5F
$GPVTG,200.78,T,,M,0.01,N,0.02,K,D*36
$GPGSA,A,3,03,20,09,10,16,23,07,19,30,27,,,1.58,0.89,1.31*0A
$GPGSV,3,1,12,09,82,006,46,23,59,117,37,07,55,303,46,48,45,205,34*79
$GPGSV,3,2,12,10,39,282,45,16,32,043,42,30,30,275,46,27,27,084,35*76
$GPGSV,3,3,12,19,23,119,35,20,14,314,42,03,13,179,31,28,08,213,26*71
$GPRMC,201417.000,A,3520.7854,N,11748.5185,W,0.02,316.16,180415,,,D*78
$GPVTG,316.16,T,,M,0.02,N,0.03,K,D*3A
$GPVTG,123.53,T,,M,0.02,N,0.03,K,D*3F
$GPGSA,A,3,03,20,09,10,16,23,07,19,30,27,,,1.58,0.89,1.31*0A
$GPRMC,201413.000,A,3520.7854,N,11748.5185,W,0.01,63.62,180415,,,D*4D
$GPVTG,63.62,T,,M,0.01,N,0.02,K,D*0A
$GPGGA,201415.000,3520.7854,N,11748.5185,W,2,10,0.89,626.8,M,-29.4,M,0000,0000*5E
$GPGSA,A,3,03,20,09,10,16,23,07,19,30,27,,,1.58,0.89,1.31*0A
$GPRMC,201415.000,A,3520.7854,N,11748.5185,W,0.01,108.03,180415,,,D*70
$GPVTG,108.03,T,,M,0.01,N,0.03,K,D*30
$GPGSV,3,2,12,10,39,282,47,16,32,043,46,30,29,275,46,27,27,084,37*7A
$GPGSV,3,3,12,19,22,119,33,20,13,314,37,03,13,179,30,28,08,213,28*7C
$GPRMC,201352.000,A,3520.7854,N,11748.5184,W,0.01,25.22,180415,,,D*48
$GPGGA,201418.000,3520.7854,N,11748.5185,W,2,10,0.89,626.8,M,-29.4,M,0000,0000*53
$GPGSA,A,3,03,20,09,10,16,23,07,19,30,27,,,1.58,0.89,1.31*0A
$GPRMC,201418.000,A,3520.7854,N,11748.5185,W,0.01,9.26,180415,,,D*7A
$GPVTG,9.26,T,,M,0.01,N,0.03,K,D*37
$GPGGA,201404.000,3520.7854,N,11748.5184,W,2,10,0.89,626.8,M,-29.4,M,0000,0000*5F
$GPVTG,200.78,T,,M,0.01,N,0.02,K,D*36
$GPGSV,3,2,12,10,39,282,44,16,32,043,45,30,29,275,44,27,27,084,34*7B
$GPGSV,3,3,12,19,22,119,31,03,14,179,26,20,13,314,33,28,08,213,27*75
$GPGGA,201350.000,3520.7854,N,11748.5184,W,2,10,0.89,626.7,M,-29.4,M,0000,0000*56
$GPGGA,201352.000,3520.7854,N,11748.5184,W,2,10,0.89,626.7,M,-29.4,M,0000,0000*54
$GPGSA,A,3,03,20,09,10,16,23,07,19,30,27,,,1.58,0.89,1.30*0B
$GPGSV,3,1,12,09,82,005,46,23,60,117,40,07,55,303,46,48,45,205,35*71
$GPGGA,201419.000,3520.7854,N,11748.5185,W,2,10,0.89,626.8,M,-29.4,M,0000,0000*52
$GPGSA,A,3,03,20,09,10,16,23,07,19,30,27,,,1.58,0.89,1.31*0A
$GPRMC,201419.000,A,3520.7854,N,11748.5185,W,0.01,317.94,180415,,,D*7E
$GPVTG,317.94,T,,M,0.01,N,0.03,K,D*32
$GPGGA,201412.000,3520.7854,N,11748.5185,W,2,10,0.89,626.8,M,-29.4,M,0000,0000*59
$GPGGA,201416.000,3520.7854,N,11748.5185,W,2,10,0.89,626.8,M,-29.4,M,0000,0000*5D
$GPGSA,A,3,03,20,09,10,16,23,07,19,30,27,,,1.58,0.89,1.31*0A
$GPRMC,201416.000,A,3520.7854,N,11748.5185,W,0.02,72.14,180415,,,D*4A
$GPVTG,72.14,T,,M,0.02,N,0.03,K,D*09
$GPGGA,201420.000,3520.7854,N,11748.5185,W,2,10,0.89,626.8,M,-29.4,M,0000,0000*58
$GPGSA,A,3,03,20,09,10,16,23,07,19,30,27,,,1.58,0.89,1.31*0A
$GPRMC,201420.000,A,3520.7854,N,11748.5185,W,0.01,289.77,180415,,,D*7F
$GPVTG,289.77,T,,M,0.01,N,0.02,K,D*38
$GPGGA,201414.000,3520.7854,N,11748.5185,W,2,10,0.89,626.8,M,-29.4,M,0000,0000*5F
$GPGSA,A,3,03,20,09,10,16,23,07,19,30,27,,,1.58,0.89,1.31*0A
$GPRMC,201414.000,A,3520.7854,N,11748.5185,W,0.02,105.93,180415,,,D*76
$GPVTG,105.93,T,,M,0.02,N,0.04,K,D*30
$GPGSA,A,3,03,20,09,10,16,23,07,19,30,27,,,1.58,0.89,1.31*0A
$GPGSV,3,1,12,09,82,006,47,23,59,117,38,07,55,303,46,48,45,205,35*76
$GPGSV,3,2,12,10,39,282,46,16,32,043,44,30,29,275,47,27,27,084,36*79
$GPGSV,3,3,12,19,23,119,35,20,14,314,42,03,13,179,31,28,08,213,22*75
$GPGSA,A,3,03,20,09,10,16,23,07,19,30,27,,,1.58,0.89,1.31*0A
$GPGSA,A,3,03,20,09,10,16,23,07,19,30,27,,,1.58,0.89,1.31*0A
$GPRMC,201421.000,A,3520.7854,N,11748.5185,W,0.01,294.67,180415,,,D*73
$GPVTG,294.67,T,,M,0.01,N,0.02,K,D*35
$GPRMC,201411.000,A,3520.7854,N,11748.5185,W,0.02,123.53,180415,,,D*7B
$GPGSA,A,3,03,20,09,10,16,23,07,19,30,27,,,1.58,0.89,1.31*0A
$GPGSV,3,1,12,09,82,006,46,23,59,117,37,07,55,303,46,48,45,205,34*79
$GPGSV,3,2,12,10,39,282,45,16,32,043,42,30,30,275,46,27,27,084,35*76
$GPGSV,3,3,12,19,23,119,35,20,14,314,42,03,13,179,31,28,08,213,26*71
$GPRMC,201417.000,A,3520.7854,N,11748.5185,W,0.02,316.16,180415,,,D*78
$GPVTG,316.16,T,,M,0.02,N,0.03,K,D*3A
$GPVTG,123.53,T,,M,0.02,N,0.03,K,D*3F
$GPGGA,201413.000,3520.7854,N,11748.5185,W,2,10,0.89,626.8,M,-29.4,M,0000,0000*58
$GPGSA,A,3,03,20,09,10,16,23,07,19,30,27,,,1.58,0.89,1.31*0A
$GPRMC,201413.000,A,3520.7854,N,11748.5185,W,0.01,63.62,180415,,,D*4D
$GPVTG,63.62,T,,M,0.01,N,0.02,K,D*0A
$GPGGA,201422.000,3520.7854,N,11748.5185,W,2,10,0.89,626.8,M,-29.4,M,0000,0000*5A
$GPGSA,A,3,03,20,09,10,16,23,07,19,30,27,,,1.58,0.89,1.31*0A
$GPGSV,3,1,12,09,82,006,46,23,59,117,38,07,55,303,46,48,45,205,34*76
$GPGSV,3,2,12,10,39,282,46,16,32,043,42,30,30,275,46,27,27,084,36*76
$GPGSV,3,3,12,19,23,119,36,20,14,314,42,03,13,179,31,28,08,213,27*73
$GPRMC,201422.000,A,3520.7854,N,11748.5185,W,0.02,306.79,180415,,,D*76
$GPVTG,306.79,T,,M,0.02,N,0.03,K,D*32
$GPGGA,201415.000,3520.7854,N,11748.5185,W,2,10,0.89,626.8,M,-29.4,M,0000,0000*5E
$GPGSA,A,3,03,20,09,10,16,23,07,19,30,27,,,1.58,0.89,1.31*0A
$GPRMC,201415.000,A,3520.7854,N,11748.5185,W,0.01,108.03,180415,,,D*70
$GPVTG,108.03,T,,M,0.01,N,0.03,K,D*30
$GPGSV,3,2,12,10,39,282,47,16,32,043,46,30,29,275,46,27,27,084,37*7A
$GPGSV,3,3,12,19,22,119,33,20,13,314,37,03,13,179,30,28,08,213,28*7C
$GPRMC,201352.000,A,3520.7854,N,11748.5184,W,0.01,25.22,180415,,,D*48
$GPGSA,A,3,03,20,09,10,16,23,07,19,30,27,,,1.58,0.89,1.31*0A
$GPRMC,201423.000,A,3520.7854,N,11748.5185,W,0.02,145.56,180415,,,D*7F
$GPVTG,145.56,T,,M,0.02,N,0.03,K,D*3A
$GPGSV,3,2,12,10,39,282,44,16,32,043,45,30,29,275,44,27,27,084,34*7B
$GPGSV,3,3,12,19,22,119,31,03,14,179,26,20,13,314,33,28,08,213,27*75
$GPGGA,201350.000,3520.7854,N,11748.5184,W,2,10,0.89,626.7,M,-29.4,M,0000,0000*56
$GPGGA,201352.000,3520.7854,N,11748.5184,W,2,10,0.89,626.7,M,-29.4,M,0000,0000*54
$GPGSA,A,3,03,20,09,10,16,23,07,19,30,27,,,1.58,0.89,1.30*0B
$GPGSV,3,1,12,09,82,005,46,23,60,117,40,07,55,303,46,48,45,205,35*71
$GPGGA,201419.000,3520.7854,N,11748.5185,W,2,10,0.89,626.8,M,-29.4,M,0000,0000*52
$GPGSA,A,3,03,20,09,10,16,23,07,19,30,27,,,1.58,0.89,1.31*0A
$GPRMC,201419.000,A,3520.7854,N,11748.5185,W,0.01,317.94,180415,,,D*7E
$GPVTG,317.94,T,,M,0.01,N,0.03,K,D*32
$GPGGA,201412.000,3520.7854,N,11748.5185,W,2,10,0.89,626.8,M,-29.4,M,0000,0000*59
$GPGGA,201424.000,3520.7854,N,11748.5185,W,2,10,0.89,626.8,M,-29.4,M,0000,0000*5C
$GPGSA,A,3,03,20,09,10,16,23,07,19,30,27,,,1.58,0.89,1.31*0A
$GPRMC,201424.000,A,3520.7854,N,11748.5185,W,0.01,132.47,180415,,,D*7B
$GPVTG,132.47,T,,M,0.01,N,0.02,K,D*38
$GPGGA,201416.000,3520.7854,N,11748.5185,W,2,10,0.89,626.8,M,-29.4,M,0000,0000*5D
$GPGSA,A,3,03,20,09,10,16,23,07,19,30,27,,,1.58,0.89,1.31*0A
$GPRMC,201416.000,A,3520.7854,N,11748.5185,W,0.02,72.14,180415,,,D*4A
$GPVTG,72.14,T,,M,0.02,N,0.03,K,D*09
$GPGGA,201420.000,3520.7854,N,11748.5185,W,2,10,0.89,626.8,M,-29.4,M,0000,0000*58
$GPGSA,A,3,03,20,09,10,16,23,07,19,30,27,,,1.58,0.89,1.31*0A
$GPRMC,201420.000,A,3520.7854,N,11748.5185,W,0.01,289.77,180415,,,D*7F
$GPVTG,289.77,T,,M,0.01,N,0.02,K,D*38
$GPGGA,201414.000,3520.7854,N,11748.5185,W,2,10,0.89,626.8,M,-29.4,M,0000,0000*5F
$GPGSA,A,3,03,20,09,10,16,23,07,19,30,27,,,1.58,0.89,1.31*0A
$GPRMC,201414.000,A,3520.7854,N,11748.5185,W,0.02,105.93,180415,,,D*76
$GPVTG,105.93,T,,M,0.02,N,0.04,K,D*30
$GPGSA,A,3,03,20,09,10,16,23,07,19,30,27,,,1.58,0.89,1.31*0A
$GPGGA,201425.000,3520.7854,N,11748.5185,W,2,10,0.89,626.8,M,-29.4,M,0000,0000*5D
$GPGSA,A,3,03,20,09,10,16,23,07,19,30,27,,,1.58,0.89,1.31*0A
$GPRMC,201425.000,A,3520.7854,N,11748.5185,W,0.02,105.27,180415,,,D*7B
$GPVTG,105.27,T,,M,0.02,N,0.04,K,D*3F
$GPGSV,3,1,12,09,82,006,47,23,59,117,38,07,55,303,46,48,45,205,35*76
$GPGSV,3,2,12,10,39,282,46,16,32,043,44,30,29,275,47,27,27,084,36*79
$GPGSV,3,3,12,19,23,119,35,20,14,314,42,03,13,179,31,28,08,213,22*75
$GPGSA,A,3,03,20,09,10,16,23,07,19,30,27,,,1.58,0.89,1.31*0A
$GPGGA,201421.000,3520.7854,N,11748.5185,W,2,10,0.89,626.8,M,-29.4,M,0000,0000*59
$GPGSA,A,3,03,20,09,10,16,23,07,19,30,27,,,1.58,0.89,1.31*0A
$GPRMC,201421.000,A,3520.7854,N,11748.5185,W,0.01,294.67,180415,,,D*73
$GPVTG,294.67,T,,M,0.01,N,0.02,K,D*35
$GPRMC,201411.000,A,3520.7854,N,11748.5185,W,0.02,123.53,180415,,,D*7B
$GPGGA,201417.000,3520.7854,N,11748.5185,W,2,10,0.89,626.8,M,-29.4,M,0000,0000*5C
$GPGSA,A,3,03,20,09,10,16,23,07,19,30,27,,,1.58,0.89,1.31*0A
$GPGGA,201429.000,3520.7854,N,11748.5185,W,2,10,0.89,626.8,M,-29.4,M,0000,0000*51
$GPGSA,A,3,03,20,09,10,16,23,07,19,30,27,,,1.58,0.89,1.31*0A
$GPRMC,201429.000,A,3520.7854,N,11748.5185,W,0.02,316.50,180415,,,D*77
$GPVTG,316.50,T,,M,0.02,N,0.03,K,D*38
$GPGGA,201350.000,3520.7854,N,11748.5184,W,2,10,0.89,626.7,M,-29.4,M,0000,0000*56
$GPGGA,201352.000,3520.7854,N,11748.5184,W,2,10,0.89,626.7,M,-29.4,M,0000,0000*54
$GPGSA,A,3,03,20,09,10,16,23,07,19,30,27,,,1.58,0.89,1.30*0B
$GPGSV,3,1,12,09,82,005,46,23,60,117,40,07,55,303,46,48,45,205,35*71
$GPGGA,201419.000,3520.7854,N,11748.5185,W,2,10,0.89,626.8,M,-29.4,M,0000,0000*52
$GPGSA,A,3,03,20,09,10,16,23,07,19,30,27,,,1.58,0.89,1.31*0A
$GPRMC,201419.000,A,3520.7854,N,11748.5185,W,0.01,317.94,180415,,,D*7E
$GPVTG,317.94,T,,M,0.01,N,0.03,K,D*32
$GPGGA,201412.000,3520.7854,N,11748.5185,W,2,10,0.89,626.8,M,-29.4,M,0000,0000*59
$GPGGA,201424.000,3520.7854,N,11748.5185,W,2,10,0.89,626.8,M,-29.4,M,0000,0000*5C
$GPGSA,A,3,03,20,09,10,16,23,07,19,30,27,,,1.58,0.89,1.31*0A
$GPRMC,201424.000,A,3520.7854,N,11748.5185,W,0.01,132.47,180415,,,D*7B
$GPVTG,132.47,T,,M,0.01,N,0.02,K,D*38
$GPGGA,201430.000,3520.7854,N,11748.5185,W,2,10,0.89,626.8,M,-29.4,M,0000,0000*59
$GPGSA,A,3,03,20,09,10,16,23,07,19,30,27,,,1.58,0.89,1.31*0A
$GPRMC,201430.000,A,3520.7854,N,11748.5185,W,0.01,312.70,180415,,,D*7A
$GPVTG,312.70,T,,M,0.01,N,0.01,K,D*3F
$GPGGA,201416.000,3520.7854,N,11748.5185,W,2,10,0.89,626.8,M,-29.4,M,0000,0000*5D
$GPGSA,A,3,03,20,09,10,16,23,07,19,30,27,,,1.58,0.89,1.31*0A
$GPRMC,201416.000,A,3520.7854,N,11748.5185,W,0.02,72.14,180415,,,D*4A
$GPVTG,72.14,T,,M,0.02,N,0.03,K,D*09
$GPGGA,201420.000,3520.7854,N,11748.5185,W,2,10,0.89,626.8,M,-29.4,M,0000,0000*58
$GPGSA,A,3,03,20,09,10,16,23,07,19,30,27,,,1.58,0.89,1.31*0A
$GPRMC,201420.000,A,3520.7854,N,11748.5185,W,0.01,289.77,180415,,,D*7F
$GPVTG,289.77,T,,M,0.01,N,0.02,K,D*38
$GPGGA,201414.000,3520.7854,N,11748.5185,W,2,10,0.89,626.8,M,-29.4,M,0000,0000*5F
$GPGSA,A,3,03,20,09,10,16,23,07,19,30,27,,,1.58,0.89,1.31*0A
$GPRMC,201414.000,A,3520.7854,N,11748.5185,W,0.02,105.93,180415,,,D*76
$GPVTG,105.93,T,,M,0.02,N,0.04,K,D*30
$GPGGA,201431.000,3520.7854,N,11748.5185,W,2,10,0.89,626.8,M,-29.4,M,0000,0000*58
$GPGSA,A,3,03,20,09,10,16,23,07,19,30,27,,,1.58,0.89,1.31*0A
$GPRMC,201431.000,A,3520.7854,N,11748.5185,W,0.01,281.22,180415,,,D*77
$GPVTG,281.22,T,,M,0.01,N,0.02,K,D*30
$GPGSA,A,3,03,20,09,10,16,23,07,19,30,27,,,1.58,0.89,1.31*0A
$GPGSA,A,3,03,20,09,10,16,23,07,19,30,27,,,1.58,0.89,1.31*0A
$GPRMC,201425.000,A,3520.7854,N,11748.5185,W,0.02,105.27,180415,,,D*7B
$GPVTG,105.27,T,,M,0.02,N,0.04,K,D*3F
$GPGSV,3,1,12,09,82,006,47,23,59,117,38,07,55,303,46,48,45,205,35*76
$GPGSV,3,2,12,10,39,282,46,16,32,043,44,30,29,275,47,27,27,084,36*79
$GPGSV,3,3,12,19,23,119,35,20,14,314,42,03,13,179,31,28,08,213,22*75
$GPGSA,A,3,03,20,09,10,16,23,07,19,30,27,,,1.58,0.89,1.31*0A
$GPGGA,201421.000,3520.7854,N,11748.5185,W,2,10,0.89,626.8,M,-29.4,M,0000,0000*59
$GPGSA,A,3,03,20,09,10,16,23,07,19,30,27,,,1.58,0.89,1.31*0A
$GPRMC,201421.000,A,3520.7854,N,11748.5185,W,0.01,294.67,180415,,,D*73
$GPGGA,201432.000,3520.7854,N,11748.5185,W,2,10,0.89,626.8,M,-29.4,M,0000,0000*5B
$GPGSA,A,3,03,20,09,10,16,23,07,19,30,27,,,1.58,0.89,1.31*0A
$GPGSV,3,1,12,09,82,007,46,23,59,117,37,07,55,304,47,48,45,205,35*7F
$GPGSV,3,2,12,10,39,282,48,16,32,043,43,30,30,275,47,27,27,084,36*78
$GPGSV,3,3,12,19,23,119,36,20,14,314,46,03,13,179,36,28,08,213,30*76
$GPRMC,201432.000,A,3520.7854,N,11748.5185,W,0.01,259.64,180415,,,D*73
$GPVTG,259.64,T,,M,0.01,N,0.02,K,D*37
$GPVTG,294.67,T,,M,0.01,N,0.02,K,D*35
$GPGSA,A,3,03,20,09,10,16,23,07,19,30,27,,,1.58,0.89,1.31*0A
$GPGGA,201426.000,3520.7854,N,11748.5185,W,2,10,0.89,626.8,M,-29.4,M,0000,0000*5E
$GPGSA,A,3,03,20,09,10,16,23,07,19,30,27,,,1.58,0.89,1.31*0A
$GPRMC,201426.000,A,3520.7854,N,11748.5185,W,0.01,74.95,180415,,,D*45
$GPVTG,74.95,T,,M,0.01,N,0.02,K,D*04
$GPGSV,3,1,12,09,82,006,46,23,59,117,37,07,55,303,46,48,45,205,34*79
$GPGSV,3,2,12,10,39,282,45,16,32,043,42,30,30,275,46,27,27,084,35*76
$GPGSV,3,3,12,19,23,119,35,20,14,314,42,03,13,179,31,28,08,213,26*71
$GPRMC,201417.000,A,3520.7854,N,11748.5185,W,0.02,316.16,180415,,,D*78
$GPVTG,316.16,T,,M,0.02,N,0.03,K,D*3A
$GPGGA,201433.000,3520.7854,N,11748.5185,W,2,10,0.89,626.8,M,-29.4,M,0000,0000*5A
$GPGSA,A,3,03,20,09,10,16,23,07,19,30,27,,,1.58,0.89,1.31*0A
$GPGSA,A,3,03,20,09,10,16,23,07,19,30,27,,,1.58,0.89,1.31*0A
$GPRMC,201425.000,A,3520.7854,N,11748.5185,W,0.02,105.27,180415,,,D*7B
$GPVTG,105.27,T,,M,0.02,N,0.04,K,D*3F
$GPGSV,3,1,12,09,82,006,47,23,59,117,38,07,55,303,46,48,45,205,35*76
$GPGGA,201440.000,3520.7855,N,11748.5185,W,2,10,0.89,626.8,M,-29.4,M,0000,0000*5F
$GPGSA,A,3,03,20,09,10,16,23,07,19,30,27,,,1.58,0.89,1.31*0A
$GPRMC,201440.000,A,3520.7855,N,11748.5185,W,0.02,148.62,180415,,,D*71
$GPVTG,148.62,T,,M,0.02,N,0.05,K,D*36
$GPGSV,3,2,12,10,39,282,46,16,32,043,44,30,29,275,47,27,27,084,36*79
$GPGSV,3,3,12,19,23,119,35,20,14,314,42,03,13,179,31,28,08,213,22*75
$GPGSA,A,3,03,20,09,10,16,23,07,19,30,27,,,1.58,0.89,1.31*0A
$GPGGA,201421.000,3520.7854,N,11748.5185,W,2,10,0.89,626.8,M,-29.4,M,0000,0000*59
$GPGSA,A,3,03,20,09,10,16,23,07,19,30,27,,,1.58,0.89,1.31*0A
$GPRMC,201421.000,A,3520.7854,N,11748.5185,W,0.01,294.67,180415,,,D*73
$GPGGA,201432.000,3520.7854,N,11748.5185,W,2,10,0.89,626.8,M,-29.4,M,0000,0000*5B
$GPGSA,A,3,03,20,09,10,16,23,07,19,30,27,,,1.58,0.89,1.31*0A
$GPRMC,201441.000,A,3520.7855,N,11748.5185,W,0.01,252.23,180415,,,D*7E
$GPVTG,252.23,T,,M,0.01,N,0.01,K,D*3C
$GPVTG,259.64,T,,M,0.01,N,0.02,K,D*37
$GPGSA,A,3,03,20,09,10,16,23,07,19,30,27,,,1.58,0.89,1.31*0A
$GPGGA,201426.000,3520.7854,N,11748.5185,W,2,10,0.89,626.8,M,-29.4,M,0000,0000*5E
$GPGSA,A,3,03,20,09,10,16,23,07,19,30,27,,,1.58,0.89,1.31*0A
$GPRMC,201426.000,A,3520.7854,N,11748.5185,W,0.01,74.95,180415,,,D*45
$GPVTG,74.95,T,,M,0.01,N,0.02,K,D*04
$GPGSV,3,1,12,09,82,006,46,23,59,117,37,07,55,303,46,48,45,205,34*79
$GPGSV,3,2,12,10,39,282,45,16,32,043,42,30,30,275,46,27,27,084,35*76
$GPGSV,3,3,12,19,23,119,35,20,14,314,42,03,13,179,31,28,08,213,26*71
$GPGGA,201442.000,3520.7855,N,11748.5185,W,2,10,0.89,626.8,M,-29.4,M,0000,0000*5D
$GPGSA,A,3,03,20,09,10,16,23,07,19,30,27,,,1.58,0.89,1.31*0A
$GPGSV,3,1,12,09,82,007,46,23,59,117,37,07,55,304,47,48,45,205,35*7F
$GPGSV,3,2,12,10,39,282,48,16,31,043,43,30,30,275,47,27,27,084,38*75
$GPGSV,3,3,12,19,23,118,38,20,14,314,47,03,13,179,37,28,08,213,32*7B
$GPRMC,201442.000,A,3520.7855,N,11748.5185,W,0.01,22.61,180415,,,D*4E
$GPVTG,22.61,T,,M,0.01,N,0.02,K,D*0C
$GPRMC,201417.000,A,3520.7854,N,11748.5185,W,0.02,316.16,180415,,,D*78
$GPGSA,A,3,03,20,09,10,16,23,07,19,30,27,,,1.58,0.89,1.31*0A
$GPGSA,A,3,03,20,09,10,16,23,07,19,30,27,,,1.58,0.89,1.31*0A
$GPRMC,201425.000,A,3520.7854,N,11748.5185,W,0.02,105.27,180415,,,D*7B
$GPVTG,105.27,T,,M,0.02,N,0.04,K,D*3F
$GPGSV,3,1,12,09,82,006,47,23,59,117,38,07,55,303,46,48,45,205,35*76
$GPGGA,201440.000,3520.7855,N,11748.5185,W,2,10,0.89,626.8,M,-29.4,M,0000,0000*5F
$GPGSA,A,3,03,20,09,10,16,23,07,19,30,27,,,1.58,0.89,1.31*0A
$GPRMC,201440.000,A,3520.7855,N,11748.5185,W,0.02,148.62,180415,,,D*71
$GPGGA,201443.000,3520.7855,N,11748.5185,W,2,10,0.89,626.8,M,-29.4,M,0000,0000*5C
$GPGSA,A,3,03,20,09,10,16,23,07,19,30,27,,,1.58,0.89,1.31*0A
$GPRMC,201443.000,A,3520.7855,N,11748.5185,W,0.01,326.49,180415,,,D*72
$GPVTG,326.49,T,,M,0.01,N,0.02,K,D*31
$GPVTG,148.62,T,,M,0.02,N,0.05,K,D*36
$GPGSV,3,3,12,19,23,119,35,20,14,314,42,03,13,179,31,28,08,213,22*75
$GPGSA,A,3,03,20,09,10,16,23,07,19,30,27,,,1.58,0.89,1.31*0A
$GPGGA,201421.000,3520.7854,N,11748.5185,W,2,10,0.89,626.8,M,-29.4,M,0000,0000*59
$GPGSA,A,3,03,20,09,10,16,23,07,19,30,27,,,1.58,0.89,1.31*0A
$GPRMC,201421.000,A,3520.7854,N,11748.5185,W,0.01,294.67,180415,,,D*73
$GPGGA,201432.000,3520.7854,N,11748.5185,W,2,10,0.89,626.8,M,-29.4,M,0000,0000*5B
$GPGSA,A,3,03,20,09,10,16,23,07,19,30,27,,,1.58,0.89,1.31*0A
$GPGSV,3,1,12,09,82,007,46,23,59,117,37,07,55,304,47,48,45,205,35*7F
$GPGSV,3,2,12,10,39,282,48,16,32,043,43,30,30,275,47,27,27,084,36*78
$GPGSV,3,3,12,19,23,119,36,20,14,314,46,03,13,179,36,28,08,213,30*76
$GPGGA,201444.000,3520.7855,N,11748.5185,W,2,10,0.89,626.8,M,-29.4,M,0000,0000*5B
$GPGSA,A,3,03,20,09,10,16,23,07,19,30,27,,,1.58,0.89,1.31*0A
$GPRMC,201444.000,A,3520.7855,N,11748.5185,W,0.01,359.98,180415,,,D*71
$GPVTG,359.98,T,,M,0.01,N,0.02,K,D*35
$GPRMC,201432.000,A,3520.7854,N,11748.5185,W,0.01,259.64,180415,,,D*73
$GPGSA,A,3,03,20,09,10,16,23,07,19,30,27,,,1.58,0.89,1.31*0A
$GPRMC,201441.000,A,3520.7855,N,11748.5185,W,0.01,252.23,180415,,,D*7E
$GPVTG,252.23,T,,M,0.01,N,0.01,K,D*3C
$GPVTG,259.64,T,,M,0.01,N,0.02,K,D*37
$GPVTG,294.67,T,,M,0.01,N,0.02,K,D*35
$GPRMC,201411.000,A,3520.7854,N,11748.5185,W,0.02,123.53,180415,,,D*7B
$GPGGA,201417.000,3520.7854,N,11748.5185,W,2,10,0.89,626.8,M,-29.4,M,0000,0000*5C
$GPGSA,A,3,03,20,09,10,16,23,07,19,30,27,,,1.58,0.89,1.31*0A
$GPGGA,201426.000,3520.7854,N,11748.5185,W,2,10,0.89,626.8,M,-29.4,M,0000,0000*5E
$GPGSA,A,3,03,20,09,10,16,23,07,19,30,27,,,1.58,0.89,1.31*0A
$GPRMC,201426.000,A,3520.7854,N,11748.5185,W,0.01,74.95,180415,,,D*45
$GPGGA,201445.000,3520.7855,N,11748.5185,W,2,10,0.89,626.8,M,-29.4,M,0000,0000*5A
$GPGSA,A,3,03,20,09,10,16,23,07,19,30,27,,,1.58,0.89,1.31*0A
$GPRMC,201445.000,A,3520.7855,N,11748.5185,W,0.01,335.14,180415,,,D*7E
$GPVTG,335.14,T,,M,0.01,N,0.02,K,D*3B
$GPVTG,74.95,T,,M,0.01,N,0.02,K,D*04
$GPGSV,3,2,12,10,39,282,45,16,32,043,42,30,30,275,46,27,27,084,35*76
$GPGSV,3,3,12,19,23,119,35,20,14,314,42,03,13,179,31,28,08,213,26*71
$GPGGA,201442.000,3520.7855,N,11748.5185,W,2,10,0.89,626.8,M,-29.4,M,0000,0000*5D
$GPGSA,A,3,03,20,09,10,16,23,07,19,30,27,,,1.58,0.89,1.31*0A
$GPGSV,3,1,12,09,82,007,46,23,59,117,37,07,55,304,47,48,45,205,35*7F
$GPGSV,3,2,12,10,39,282,48,16,31,043,43,30,30,275,47,27,27,084,38*75
$GPGSV,3,3,12,19,23,118,38,20,14,314,47,03,13,179,37,28,08,213,32*7B
$GPRMC,201442.000,A,3520.7855,N,11748.5185,W,0.01,22.61,180415,,,D*4E
$GPVTG,22.61,T,,M,0.01,N,0.02,K,D*0C
$GPRMC,201417.000,A,3520.7854,N,11748.5185,W,0.02,316.16,180415,,,D*78
$GPVTG,316.16,T,,M,0.02,N,0.03,K,D*3A
$GPGGA,201446.000,3520.7855,N,11748.5185,W,2,10,0.89,626.8,M,-29.4,M,0000,0000*59
$GPGSA,A,3,03,20,09,10,16,23,07,19,30,27,,,1.58,0.89,1.31*0A
$GPRMC,201446.000,A,3520.7855,N,11748.5185,W,0.01,349.19,180415,,,D*7B
$GPVTG,349.19,T,,M,0.01,N,0.02,K,D*3D
$GPGGA,201433.000,3520.7854,N,11748.5185,W,2,10,0.89,626.8,M,-29.4,M,0000,0000*5A
$GPGSA,A,3,03,20,09,10,16,23,07,19,30,27,,,1.58,0.89,1.31*0A
$GPGSA,A,3,03,20,09,10,16,23,07,19,30,27,,,1.58,0.89,1.31*0A
$GPRMC,201425.000,A,3520.7854,N,11748.5185,W,0.02,105.27,180415,,,D*7B
$GPVTG,105.27,T,,M,0.02,N,0.04,K,D*3F
$GPGSV,3,1,12,09,82,006,47,23,59,117,38,07,55,303,46,48,45,205,35*76
$GPGGA,201440.000,3520.7855,N,11748.5185,W,2,10,0.89,626.8,M,-29.4,M,0000,0000*5F
$GPGSA,A,3,03,20,09,10,16,23,07,19,30,27,,,1.58,0.89,1.31*0A
$GPGSV,3,1,12,09,82,007,46,23,59,117,37,07,55,304,47,48,45,205,34*7E
$GPGSV,3,2,12,10,39,282,48,16,31,043,43,30,30,275,49,27,27,084,37*74
$GPGSV,3,3,12,19,23,118,37,20,14,314,48,03,13,179,38,28,08,213,28*7F
$GPRMC,201447.000,A,3520.7855,N,11748.5185,W,0.02,132.91,180415,,,D*77
$GPVTG,132.91,T,,M,0.02,N,0.03,K,D*31
$GPRMC,201443.000,A,3520.7855,N,11748.5185,W,0.01,326.49,180415,,,D*72
$GPGSA,A,3,03,20,09,10,16,23,07,19,30,27,,,1.58,0.89,1.31*0A
$GPRMC,201421.000,A,3520.7854,N,11748.5185,W,0.01,294.67,180415,,,D*73
$GPGGA,201432.000,3520.7854,N,11748.5185,W,2,10,0.89,626.8,M,-29.4,M,0000,0000*5B
$GPGSA,A,3,03,20,09,10,16,23,07,19,30,27,,,1.58,0.89,1.31*0A
$GPGSV,3,1,12,09,82,007,46,23,59,117,37,07,55,304,47,48,45,205,35*7F
$GPGSV,3,2,12,10,39,282,48,16,32,043,43,30,30,275,47,27,27,084,36*78
$GPGGA,201448.000,3520.7855,N,11748.5185,W,2,10,0.89,626.9,M,-29.4,M,0000,0000*56
$GPGSA,A,3,03,20,09,10,16,23,07,19,30,27,,,1.58,0.89,1.31*0A
$GPRMC,201448.000,A,3520.7855,N,11748.5185,W,0.01,169.77,180415,,,D*7D
$GPVTG,169.77,T,,M,0.01,N,0.02,K,D*35
$GPGSV,3,3,12,19,23,119,36,20,14,314,46,03,13,179,36,28,08,213,30*76
$GPGGA,201444.000,3520.7855,N,11748.5185,W,2,10,0.89,626.8,M,-29.4,M,0000,0000*5B
$GPGSA,A,3,03,20,09,10,16,23,07,19,30,27,,,1.58,0.89,1.31*0A
$GPRMC,201444.000,A,3520.7855,N,11748.5185,W,0.01,359.98,180415,,,D*71
$GPVTG,359.98,T,,M,0.01,N,0.02,K,D*35
$GPRMC,201432.000,A,3520.7854,N,11748.5185,W,0.01,259.64,180415,,,D*73
$GPGGA,201441.000,3520.7855,N,11748.5185,W,2,10,0.89,626.8,M,-29.4,M,0000,0000*5E
$GPGSA,A,3,03,20,09,10,16,23,07,19,30,27,,,1.58,0.89,1.31*0A
$GPRMC,201441.000,A,3520.7855,N,11748.5185,W,0.01,252.23,180415,,,D*7E
$GPVTG,252.23,T,,M,0.01,N,0.01,K,D*3C
$GPVTG,259.64,T,,M,0.01,N,0.02,K,D*37
$GPVTG,294.67,T,,M,0.01,N,0.02,K,D*35
$GPGGA,201449.000,3520.7855,N,11748.5185,W,2,10,0.89,626.9,M,-29.4,M,0000,0000*57
$GPGSA,A,3,03,20,09,10,16,23,07,19,30,27,,,1.58,0.89,1.31*0A
$GPRMC,201449.000,A,3520.7855,N,11748.5185,W,0.01,198.29,180415,,,D*79
$GPVTG,198.29,T,,M,0.01,N,0.02,K,D*30
$GPRMC,201411.000,A,3520.7854,N,11748.5185,W,0.02,123.53,180415,,,D*7B
$GPGSA,A,3,03,20,09,10,16,23,07,19,30,27,,,1.58,0.89,1.31*0A
$GPGGA,201426.000,3520.7854,N,11748.5185,W,2,10,0.89,626.8,M,-29.4,M,0000,0000*5E
$GPGSA,A,3,03,20,09,10,16,23,07,19,30,27,,,1.58,0.89,1.31*0A
$GPRMC,201426.000,A,3520.7854,N,11748.5185,W,0.01,74.95,180415,,,D*45
$GPGGA,201445.000,3520.7855,N,11748.5185,W,2,10,0.89,626.8,M,-29.4,M,0000,0000*5A
$GPGSA,A,3,03,20,09,10,16,23,07,19,30,27,,,1.58,0.89,1.31*0A
$GPRMC,201445.000,A,3520.7855,N,11748.5185,W,0.01,335.14,180415,,,D*7E
$GPVTG,335.14,T,,M,0.01,N,0.02,K,D*3B
$GPVTG,74.95,T,,M,0.01,N,0.02,K,D*04
$GPGSV,3,1,12,09,82,006,46,23,59,117,37,07,55,303,46,48,45,205,34*79
$GPGSV,3,2,12,10,39,282,45,16,32,043,42,30,30,275,46,27,27,084,35*76
$GPGGA,201450.000,3520.7855,N,11748.5185,W,2,10,0.89,626.9,M,-29.4,M,0000,0000*5F
$GPGSA,A,3,03,20,09,10,16,23,07,19,30,27,,,1.58,0.89,1.31*0A
$GPRMC,201450.000,A,3520.7855,N,11748.5185,W,0.02,215.28,180415,,,D*75
$GPVTG,215.28,T,,M,0.02,N,0.04,K,D*32
$GPGSV,3,3,12,19,23,119,35,20,14,314,42,03,13,179,31,28,08,213,26*71
$GPGGA,201442.000,3520.7855,N,11748.5185,W,2,10,0.89,626.8,M,-29.4,M,0000,0000*5D
$GPGSA,A,3,03,20,09,10,16,23,07,19,30,27,,,1.58,0.89,1.31*0A
$GPGSV,3,1,12,09,82,007,46,23,59,117,37,07,55,304,47,48,45,205,35*7F
$GPGSV,3,2,12,10,39,282,48,16,31,043,43,30,30,275,47,27,27,084,38*75
$GPGSV,3,3,12,19,23,118,38,20,14,314,47,03,13,179,37,28,08,213,32*7B
$GPRMC,201442.000,A,3520.7855,N,11748.5185,W,0.01,22.61,180415,,,D*4E
$GPVTG,22.61,T,,M,0.01,N,0.02,K,D*0C
$GPRMC,201417.000,A,3520.7854,N,11748.5185,W,0.02,316.16,180415,,,D*78
$GPVTG,316.16,T,,M,0.02,N,0.03,K,D*3A
$GPGGA,201446.000,3520.7855,N,11748.5185,W,2,10,0.89,626.8,M,-29.4,M,0000,0000*59
$GPGSA,A,3,03,20,09,10,16,23,07,19,30,27,,,1.58,0.89,1.31*0A
$GPGGA,201451.000,3520.7855,N,11748.5185,W,2,10,0.89,626.9,M,-29.4,M,0000,0000*5E
$GPGSA,A,3,03,20,09,10,16,23,07,19,30,27,,,1.58,0.89,1.31*0A
$GPRMC,201451.000,A,3520.7855,N,11748.5185,W,0.02,157.36,180415,,,D*7E
$GPVTG,157.36,T,,M,0.02,N,0.03,K,D*3F
$GPRMC,201446.000,A,3520.7855,N,11748.5185,W,0.01,349.19,180415,,,D*7B
$GPGSA,A,3,03,20,09,10,16,23,07,19,30,27,,,1.58,0.89,1.31*0A
$GPGSA,A,3,03,20,09,10,16,23,07,19,30,27,,,1.58,0.89,1.31*0A
$GPRMC,201425.000,A,3520.7854,N,11748.5185,W,0.02,105.27,180415,,,D*7B
$GPVTG,105.27,T,,M,0.02,N,0.04,K,D*3F
$GPGSV,3,1,12,09,82,006,47,23,59,117,38,07,55,303,46,48,45,205,35*76
$GPGGA,201440.000,3520.7855,N,11748.5185,W,2,10,0.89,626.8,M,-29.4,M,0000,0000*5F
$GPGSA,A,3,03,20,09,10,16,23,07,19,30,27,,,1.58,0.89,1.31*0A
$GPRMC,201440.000,A,3520.7855,N,11748.5185,W,0.02,148.62,180415,,,D*71
$GPGGA,201452.000,3520.7855,N,11748.5185,W,2,10,0.89,626.9,M,-29.4,M,0000,0000*5D
$GPGSA,A,3,03,20,09,10,16,23,07,19,30,27,,,1.58,0.89,1.31*0A
$GPGSV,3,1,12,09,82,007,46,23,59,117,38,07,55,304,47,48,45,205,36*73
$GPGSV,3,2,12,10,39,282,49,16,31,043,43,30,30,275,50,27,27,084,36*7C
$GPGSV,3,3,12,19,23,118,37,20,14,314,48,03,13,179,39,28,08,213,32*75
$GPRMC,201452.000,A,3520.7855,N,11748.5185,W,0.02,205.45,180415,,,D*7D
$GPVTG,205.45,T,,M,0.02,N,0.03,K,D*3F
$GPGGA,201443.000,3520.7855,N,11748.5185,W,2,10,0.89,626.8,M,-29.4,M,0000,0000*5C
$GPGSA,A,3,03,20,09,10,16,23,07,19,30,27,,,1.58,0.89,1.31*0A
$GPGGA,201447.000,3520.7855,N,11748.5185,W,2,10,0.89,626.9,M,-29.4,M,0000,0000*59
$GPGSA,A,3,03,20,09,10,16,23,07,19,30,27,,,1.58,0.89,1.31*0A
$GPGSV,3,1,12,09,82,007,46,23,59,117,37,07,55,304,47,48,45,205,34*7E
$GPGSV,3,2,12,10,39,282,48,16,31,043,43,30,30,275,49,27,27,084,37*74
$GPGSV,3,3,12,19,23,118,37,20,14,314,48,03,13,179,38,28,08,213,28*7F
$GPRMC,201447.000,A,3520.7855,N,11748.5185,W,0.02,132.91,180415,,,D*77
$GPVTG,132.91,T,,M,0.02,N,0.03,K,D*31
$GPGSA,A,3,03,20,09,10,16,23,07,19,30,27,,,1.58,0.89,1.31*0A
$GPRMC,201453.000,A,3520.7855,N,11748.5185,W,0.01,334.49,180415,,,D*70
$GPVTG,334.49,T,,M,0.01,N,0.02,K,D*32
$GPGSA,A,3,03,20,09,10,16,23,07,19,30,27,,,1.58,0.89,1.31*0A
$GPGSA,A,3,03,20,09,10,16,23,07,19,30,27,,,1.58,0.89,1.31*0A
$GPRMC,201421.000,A,3520.7854,N,11748.5185,W,0.01,294.67,180415,,,D*73
$GPGGA,201432.000,3520.7854,N,11748.5185,W,2,10,0.89,626.8,M,-29.4,M,0000,0000*5B
$GPGSA,A,3,03,20,09,10,16,23,07,19,30,27,,,1.58,0.89,1.31*0A
$GPGSV,3,1,12,09,82,007,46,23,59,117,37,07,55,304,47,48,45,205,35*7F
$GPGSV,3,2,12,10,39,282,48,16,32,043,43,30,30,275,47,27,27,084,36*78
$GPGGA,201448.000,3520.7855,N,11748.5185,W,2,10,0.89,626.9,M,-29.4,M,0000,0000*56
$GPGSA,A,3,03,20,09,10,16,23,07,19,30,27,,,1.58,0.89,1.31*0A
$GPRMC,201448.000,A,3520.7855,N,11748.5185,W,0.01,169.77,180415,,,D*7D
$GPVTG,169.77,T,,M,0.01,N,0.02,K,D*35
$GPGGA,201454.000,3520.7855,N,11748.5185,W,2,10,0.89,626.9,M,-29.4,M,0000,0000*5B
$GPGSA,A,3,03,20,09,10,16,23,07,19,30,27,,,1.58,0.89,1.31*0A
$GPRMC,201454.000,A,3520.7855,N,11748.5185,W,0.01,331.66,180415,,,D*7F
$GPVTG,331.66,T,,M,0.01,N,0.02,K,D*3A
$GPGSV,3,3,12,19,23,119,36,20,14,314,46,03,13,179,36,28,08,213,30*76
$GPGGA,201444.000,3520.7855,N,11748.5185,W,2,10,0.89,626.8,M,-29.4,M,0000,0000*5B
$GPGSA,A,3,03,20,09,10,16,23,07,19,30,27,,,1.58,0.89,1.31*0A
$GPRMC,201444.000,A,3520.7855,N,11748.5185,W,0.01,359.98,180415,,,D*71
$GPVTG,359.98,T,,M,0.01,N,0.02,K,D*35
$GPRMC,201432.000,A,3520.7854,N,11748.5185,W,0.01,259.64,180415,,,D*73
$GPGGA,201441.000,3520.7855,N,11748.5185,W,2,10,0.89,626.8,M,-29.4,M,0000,0000*5E
$GPGSA,A,3,03,20,09,10,16,23,07,19,30,27,,,1.58,0.89,1.31*0A
$GPRMC,201441.000,A,3520.7855,N,11748.5185,W,0.01,252.23,180415,,,D*7E
$GPVTG,252.23,T,,M,0.01,N,0.01,K,D*3C
$GPVTG,259.64,T,,M,0.01,N,0.02,K,D*37
$GPVTG,294.67,T,,M,0.01,N,0.02,K,D*35
$GPGGA,201455.000,3520.7855,N,11748.5185,W,2,10,0.89,626.9,M,-29.4,M,0000,0000*5A
$GPGSA,A,3,03,20,09,10,16,23,07,19,30,27,,,1.58,0.89,1.31*0A
$GPRMC,201455.000,A,3520.7855,N,11748.5185,W,0.01,4.46,180415,,,D*79
$GPVTG,4.46,T,,M,0.01,N,0.01,K,D*3E
$GPGGA,201449.000,3520.7855,N,11748.5185,W,2,10,0.89,626.9,M,-29.4,M,0000,0000*57
$GPGSA,A,3,03,20,09,10,16,23,07,19,30,27,,,1.58,0.89,1.31*0A
$GPRMC,201449.000,A,3520.7855,N,11748.5185,W,0.01,198.29,180415,,,D*79
$GPVTG,198.29,T,,M,0.01,N,0.02,K,D*30
$GPRMC,201411.000,A,3520.7854,N,11748.5185,W,0.02,123.53,180415,,,D*7B
$GPGGA,201417.000,3520.7854,N,11748.5185,W,2,10,0.89,626.8,M,-29.4,M,0000,0000*5C
$GPGSA,A,3,03,20,09,10,16,23,07,19,30,27,,,1.58,0.89,1.31*0A
$GPGGA,201426.000,3520.7854,N,11748.5185,W,2,10,0.89,626.8,M,-29.4,M,0000,0000*5E
$GPGSA,A,3,03,20,09,10,16,23,07,19,30,27,,,1.58,0.89,1.31*0A
$GPRMC,201426.000,A,3520.7854,N,11748.5185,W,0.01,74.95,180415,,,D*45
$GPGGA,201445.000,3520.7855,N,11748.5185,W,2,10,0.89,626.8,M,-29.4,M,0000,0000*5A
$GPGSA,A,3,03,20,09,10,16,23,07,19,30,27,,,1.58,0.89,1.31*0A
$GPGGA,201456.000,3520.7855,N,11748.5185,W,2,10,0.89,626.9,M,-29.4,M,0000,0000*59
$GPGSA,A,3,03,20,09,10,16,23,07,19,30,27,,,1.58,0.89,1.31*0A
$GPRMC,201456.000,A,3520.7855,N,11748.5185,W,0.01,340.42,180415,,,D*7D
$GPVTG,340.42,T,,M,0.01,N,0.02,K,D*3A
$GPRMC,201445.000,A,3520.7855,N,11748.5185,W,0.01,335.14,180415,,,D*7E
$GPGSA,A,3,03,20,09,10,16,23,07,19,30,27,,,1.58,0.89,1.31*0A
$GPRMC,201450.000,A,3520.7855,N,11748.5185,W,0.02,215.28,180415,,,D*75
$GPVTG,215.28,T,,M,0.02,N,0.04,K,D*32
$GPGSV,3,3,12,19,23,119,35,20,14,314,42,03,13,179,31,28,08,213,26*71
